%time,field.header.seq,field.header.stamp,field.header.frame_id,field.orientation.x,field.orientation.y,field.orientation.z,field.orientation.w,field.orientation_covariance0,field.orientation_covariance1,field.orientation_covariance2,field.orientation_covariance3,field.orientation_covariance4,field.orientation_covariance5,field.orientation_covariance6,field.orientation_covariance7,field.orientation_covariance8,field.angular_velocity.x,field.angular_velocity.y,field.angular_velocity.z,field.angular_velocity_covariance0,field.angular_velocity_covariance1,field.angular_velocity_covariance2,field.angular_velocity_covariance3,field.angular_velocity_covariance4,field.angular_velocity_covariance5,field.angular_velocity_covariance6,field.angular_velocity_covariance7,field.angular_velocity_covariance8,field.linear_acceleration.x,field.linear_acceleration.y,field.linear_acceleration.z,field.linear_acceleration_covariance0,field.linear_acceleration_covariance1,field.linear_acceleration_covariance2,field.linear_acceleration_covariance3,field.linear_acceleration_covariance4,field.linear_acceleration_covariance5,field.linear_acceleration_covariance6,field.linear_acceleration_covariance7,field.linear_acceleration_covariance8
1585289618071231770,8235,1585289618070095516,foot_imu_link,-0.196894288063,-0.156691685319,-0.639847576618,0.726137399673,0.0,0.0,0.0,0.0,0.0,0.0,0.0,0.0,0.0,0.000177114270627,-0.000948626431637,-0.00283697294071,0.01,0.0,0.0,0.0,0.01,0.0,0.0,0.0,0.01,-4.62442302704,0.804193854332,-8.40235900879,0.01,0.0,0.0,0.0,0.01,0.0,0.0,0.0,0.01
1585289618095137499,8236,1585289618094724173,foot_imu_link,-0.196909382939,-0.156717643142,-0.639851391315,0.726124286652,0.0,0.0,0.0,0.0,0.0,0.0,0.0,0.0,0.0,-0.00153245870024,-0.000816294399556,-0.000689159147441,0.01,0.0,0.0,0.0,0.01,0.0,0.0,0.0,0.01,-4.6213684082,0.793223977089,-8.43379116058,0.01,0.0,0.0,0.0,0.01,0.0,0.0,0.0,0.01
1585289618120271836,8237,1585289618119869581,foot_imu_link,-0.196916803718,-0.156734243035,-0.639854311943,0.72611618042,0.0,0.0,0.0,0.0,0.0,0.0,0.0,0.0,0.0,6.10817223787e-05,-0.00171914231032,-0.000649334862828,0.01,0.0,0.0,0.0,0.01,0.0,0.0,0.0,0.01,-4.61530017853,0.815832495689,-8.40850734711,0.01,0.0,0.0,0.0,0.01,0.0,0.0,0.0,0.01
1585289618145667313,8238,1585289618144924963,foot_imu_link,-0.196929588914,-0.156764179468,-0.639859437943,0.726101756096,0.0,0.0,0.0,0.0,0.0,0.0,0.0,0.0,0.0,0.000454279594123,-0.00240425392985,6.83031976223e-06,0.01,0.0,0.0,0.0,0.01,0.0,0.0,0.0,0.01,-4.60899305344,0.815179467201,-8.40420436859,0.01,0.0,0.0,0.0,0.01,0.0,0.0,0.0,0.01
1585289618170652144,8239,1585289618170015254,foot_imu_link,-0.19694070518,-0.156781673431,-0.639863491058,0.726091384888,0.0,0.0,0.0,0.0,0.0,0.0,0.0,0.0,0.0,-0.000533270649612,-0.00133346044458,-0.000241559930146,0.01,0.0,0.0,0.0,0.01,0.0,0.0,0.0,0.01,-4.61351633072,0.78935021162,-8.43603515625,0.01,0.0,0.0,0.0,0.01,0.0,0.0,0.0,0.01
1585289618195703622,8240,1585289618195006934,foot_imu_link,-0.196962058544,-0.156801626086,-0.639858782291,0.726085424423,0.0,0.0,0.0,0.0,0.0,0.0,0.0,0.0,0.0,-0.000674114562571,-0.00103513104841,0.000477011781186,0.01,0.0,0.0,0.0,0.01,0.0,0.0,0.0,0.01,-4.65497350693,0.826499164104,-8.43699645996,0.01,0.0,0.0,0.0,0.01,0.0,0.0,0.0,0.01
1585289618220961290,8241,1585289618220270823,foot_imu_link,-0.196964114904,-0.156796827912,-0.639867663383,0.726078033447,0.0,0.0,0.0,0.0,0.0,0.0,0.0,0.0,0.0,-0.00142727605999,0.000535138649866,-0.000317302532494,0.01,0.0,0.0,0.0,0.01,0.0,0.0,0.0,0.01,-4.61572313309,0.844024777412,-8.44487953186,0.01,0.0,0.0,0.0,0.01,0.0,0.0,0.0,0.01
1585289618245789345,8242,1585289618245113808,foot_imu_link,-0.196969300508,-0.156790733337,-0.639862239361,0.726082801819,0.0,0.0,0.0,0.0,0.0,0.0,0.0,0.0,0.0,-0.00164066627622,0.000415641698055,-0.000154113862664,0.01,0.0,0.0,0.0,0.01,0.0,0.0,0.0,0.01,-4.61448574066,0.827015817165,-8.43900299072,0.01,0.0,0.0,0.0,0.01,0.0,0.0,0.0,0.01
1585289618270578631,8243,1585289618269815250,foot_imu_link,-0.196966707706,-0.156772509217,-0.639860808849,0.726088583469,0.0,0.0,0.0,0.0,0.0,0.0,0.0,0.0,0.0,-0.00228459946811,-0.000231231562793,0.00100342137739,0.01,0.0,0.0,0.0,0.01,0.0,0.0,0.0,0.01,-4.61287212372,0.825075447559,-8.40339660645,0.01,0.0,0.0,0.0,0.01,0.0,0.0,0.0,0.01
1585289618295704926,8244,1585289618295067767,foot_imu_link,-0.196967884898,-0.156752824783,-0.639856338501,0.726096510887,0.0,0.0,0.0,0.0,0.0,0.0,0.0,0.0,0.0,-0.000860104337335,0.00194633519277,0.0015137582086,0.01,0.0,0.0,0.0,0.01,0.0,0.0,0.0,0.01,-4.62036418915,0.814802825451,-8.36612892151,0.01,0.0,0.0,0.0,0.01,0.0,0.0,0.0,0.01
1585289618320607185,8245,1585289618319829108,foot_imu_link,-0.196966320276,-0.156736001372,-0.63984978199,0.726106345654,0.0,0.0,0.0,0.0,0.0,0.0,0.0,0.0,0.0,-0.000298725441098,0.00220012408681,0.00103806750849,0.01,0.0,0.0,0.0,0.01,0.0,0.0,0.0,0.01,-4.62700796127,0.787702620029,-8.41563034058,0.01,0.0,0.0,0.0,0.01,0.0,0.0,0.0,0.01
1585289618345571643,8246,1585289618344738301,foot_imu_link,-0.196949899197,-0.156730026007,-0.639836072922,0.726124107838,0.0,0.0,0.0,0.0,0.0,0.0,0.0,0.0,0.0,-0.000980393029749,0.00122930749785,0.00155911408365,0.01,0.0,0.0,0.0,0.01,0.0,0.0,0.0,0.01,-4.61982727051,0.82892370224,-8.40818023682,0.01,0.0,0.0,0.0,0.01,0.0,0.0,0.0,0.01
1585289618370389729,8247,1585289618369699519,foot_imu_link,-0.196937158704,-0.156713232398,-0.639834403992,0.726132750511,0.0,0.0,0.0,0.0,0.0,0.0,0.0,0.0,0.0,-0.000701171346009,0.00218119984493,0.0013761674054,0.01,0.0,0.0,0.0,0.01,0.0,0.0,0.0,0.01,-4.62893819809,0.802538275719,-8.42531394958,0.01,0.0,0.0,0.0,0.01,0.0,0.0,0.0,0.01
1585289618396803594,8248,1585289618394891312,foot_imu_link,-0.196921765804,-0.156701937318,-0.639840185642,0.726134240627,0.0,0.0,0.0,0.0,0.0,0.0,0.0,0.0,0.0,6.63101673126e-05,0.00167745701037,1.79423950613e-05,0.01,0.0,0.0,0.0,0.01,0.0,0.0,0.0,0.01,-4.63887071609,0.808948993683,-8.44523620605,0.01,0.0,0.0,0.0,0.01,0.0,0.0,0.0,0.01
1585289618420572380,8249,1585289618419864647,foot_imu_link,-0.196908682585,-0.156689703465,-0.639838755131,0.726141691208,0.0,0.0,0.0,0.0,0.0,0.0,0.0,0.0,0.0,-0.000740862451494,0.000592445605434,0.00120194628835,0.01,0.0,0.0,0.0,0.01,0.0,0.0,0.0,0.01,-4.60454034805,0.810674071312,-8.40090847015,0.01,0.0,0.0,0.0,0.01,0.0,0.0,0.0,0.01
1585289618444562397,8250,1585289618444323187,foot_imu_link,-0.196891739964,-0.156663924456,-0.6398229599,0.72616571188,0.0,0.0,0.0,0.0,0.0,0.0,0.0,0.0,0.0,0.000401275232434,0.00381779950112,0.00168999517336,0.01,0.0,0.0,0.0,0.01,0.0,0.0,0.0,0.01,-4.6151638031,0.817923605442,-8.40336799622,0.01,0.0,0.0,0.0,0.01,0.0,0.0,0.0,0.01
1585289618469464269,8251,1585289618469299905,foot_imu_link,-0.196854561567,-0.156626448035,-0.639816403389,0.726189613342,0.0,0.0,0.0,0.0,0.0,0.0,0.0,0.0,0.0,0.00174010079354,0.0047585228458,0.00193834258243,0.01,0.0,0.0,0.0,0.01,0.0,0.0,0.0,0.01,-4.60885047913,0.81641638279,-8.4221944809,0.01,0.0,0.0,0.0,0.01,0.0,0.0,0.0,0.01
1585289618495406711,8252,1585289618494662952,foot_imu_link,-0.196789905429,-0.156583085656,-0.639812648296,0.726219832897,0.0,0.0,0.0,0.0,0.0,0.0,0.0,0.0,0.0,0.000727877952158,0.00699439365417,0.00292668770999,0.01,0.0,0.0,0.0,0.01,0.0,0.0,0.0,0.01,-4.5908613205,0.80676984787,-8.42232322693,0.01,0.0,0.0,0.0,0.01,0.0,0.0,0.0,0.01
1585289618520426189,8253,1585289618519597695,foot_imu_link,-0.196695759892,-0.156530201435,-0.639814436436,0.726255238056,0.0,0.0,0.0,0.0,0.0,0.0,0.0,0.0,0.0,0.00312895234674,0.00671618804336,0.00129035441205,0.01,0.0,0.0,0.0,0.01,0.0,0.0,0.0,0.01,-4.58543682098,0.822422742844,-8.39373493195,0.01,0.0,0.0,0.0,0.01,0.0,0.0,0.0,0.01
1585289618545261658,8254,1585289618544506748,foot_imu_link,-0.196644052863,-0.156503364444,-0.639818906784,0.726271033287,0.0,0.0,0.0,0.0,0.0,0.0,0.0,0.0,0.0,0.00157014653087,0.00240170676261,0.000296440906823,0.01,0.0,0.0,0.0,0.01,0.0,0.0,0.0,0.01,-4.63203716278,0.825304746628,-8.43267059326,0.01,0.0,0.0,0.0,0.01,0.0,0.0,0.0,0.01
1585289618570469954,8255,1585289618569607250,foot_imu_link,-0.196599453688,-0.156498491764,-0.639819085598,0.726283967495,0.0,0.0,0.0,0.0,0.0,0.0,0.0,0.0,0.0,0.00256842374802,0.00326743070036,0.000117931514978,0.01,0.0,0.0,0.0,0.01,0.0,0.0,0.0,0.01,-4.60777187347,0.795502841473,-8.42285442352,0.01,0.0,0.0,0.0,0.01,0.0,0.0,0.0,0.01
1585289618595335922,8256,1585289618594639945,foot_imu_link,-0.196540117264,-0.156486332417,-0.639826059341,0.72629648447,0.0,0.0,0.0,0.0,0.0,0.0,0.0,0.0,0.0,0.00168908666819,0.00290261488408,0.000372023321688,0.01,0.0,0.0,0.0,0.01,0.0,0.0,0.0,0.01,-4.6118106842,0.803284823895,-8.40144348145,0.01,0.0,0.0,0.0,0.01,0.0,0.0,0.0,0.01
1585289618620618653,8257,1585289618619819604,foot_imu_link,-0.196472302079,-0.156472980976,-0.639838278294,0.726307034492,0.0,0.0,0.0,0.0,0.0,0.0,0.0,0.0,0.0,0.00297528319061,0.00440943147987,-0.00138680497184,0.01,0.0,0.0,0.0,0.01,0.0,0.0,0.0,0.01,-4.59185123444,0.780023336411,-8.43739700317,0.01,0.0,0.0,0.0,0.01,0.0,0.0,0.0,0.01
1585289618645317358,8258,1585289618644675570,foot_imu_link,-0.196380540729,-0.156471043825,-0.639876544476,0.726298570633,0.0,0.0,0.0,0.0,0.0,0.0,0.0,0.0,0.0,0.00671149417758,0.00437765475363,-0.00373948272318,0.01,0.0,0.0,0.0,0.01,0.0,0.0,0.0,0.01,-4.5851020813,0.794785857201,-8.42895698547,0.01,0.0,0.0,0.0,0.01,0.0,0.0,0.0,0.01
1585289618670281294,8259,1585289618669476193,foot_imu_link,-0.196316927671,-0.15649035573,-0.639909207821,0.726282775402,0.0,0.0,0.0,0.0,0.0,0.0,0.0,0.0,0.0,0.00117572396994,-0.000371676986106,-0.00273537216708,0.01,0.0,0.0,0.0,0.01,0.0,0.0,0.0,0.01,-4.60722923279,0.802216291428,-8.43282699585,0.01,0.0,0.0,0.0,0.01,0.0,0.0,0.0,0.01
1585289618695309879,8260,1585289618694419790,foot_imu_link,-0.196329861879,-0.156511217356,-0.639920532703,0.726264894009,0.0,0.0,0.0,0.0,0.0,0.0,0.0,0.0,0.0,-0.00022929161787,-0.00202257419005,-0.00060466164723,0.01,0.0,0.0,0.0,0.01,0.0,0.0,0.0,0.01,-4.62959861755,0.792389214039,-8.43676185608,0.01,0.0,0.0,0.0,0.01,0.0,0.0,0.0,0.01
1585289618720004179,8261,1585289618719338374,foot_imu_link,-0.196350350976,-0.156535580754,-0.639932096004,0.726243853569,0.0,0.0,0.0,0.0,0.0,0.0,0.0,0.0,0.0,0.000819768756628,-0.00356401596218,-0.00152912596241,0.01,0.0,0.0,0.0,0.01,0.0,0.0,0.0,0.01,-4.60634422302,0.795180559158,-8.39804840088,0.01,0.0,0.0,0.0,0.01,0.0,0.0,0.0,0.01
1585289618745246805,8262,1585289618744502161,foot_imu_link,-0.196382254362,-0.156562700868,-0.639932453632,0.726229071617,0.0,0.0,0.0,0.0,0.0,0.0,0.0,0.0,0.0,-0.00201042275876,-0.00251584080979,-0.0015637264587,0.01,0.0,0.0,0.0,0.01,0.0,0.0,0.0,0.01,-4.59625959396,0.781314134598,-8.40933990479,0.01,0.0,0.0,0.0,0.01,0.0,0.0,0.0,0.01
1585289618770185996,8263,1585289618769508613,foot_imu_link,-0.196410343051,-0.156587213278,-0.639938592911,0.726210713387,0.0,0.0,0.0,0.0,0.0,0.0,0.0,0.0,0.0,-0.00143876392394,-0.00263660261407,-0.00143990293145,0.01,0.0,0.0,0.0,0.01,0.0,0.0,0.0,0.01,-4.62246751785,0.792758703232,-8.4284658432,0.01,0.0,0.0,0.0,0.01,0.0,0.0,0.0,0.01
1585289618795028551,8264,1585289618794298278,foot_imu_link,-0.196443840861,-0.15661098063,-0.639935910702,0.726198971272,0.0,0.0,0.0,0.0,0.0,0.0,0.0,0.0,0.0,-0.00155950430781,-0.00235243886709,-0.00108872866258,0.01,0.0,0.0,0.0,0.01,0.0,0.0,0.0,0.01,-4.5969619751,0.830162763596,-8.43731594086,0.01,0.0,0.0,0.0,0.01,0.0,0.0,0.0,0.01
1585289618819917307,8265,1585289618819362926,foot_imu_link,-0.1964725703,-0.156641945243,-0.639935851097,0.726184546947,0.0,0.0,0.0,0.0,0.0,0.0,0.0,0.0,0.0,-0.000601545907557,-0.00322162453085,-0.00133778713644,0.01,0.0,0.0,0.0,0.01,0.0,0.0,0.0,0.01,-4.60271835327,0.821089267731,-8.42605018616,0.01,0.0,0.0,0.0,0.01,0.0,0.0,0.0,0.01
1585289618845417405,8266,1585289618844552610,foot_imu_link,-0.196489661932,-0.156669408083,-0.639948129654,0.72616314888,0.0,0.0,0.0,0.0,0.0,0.0,0.0,0.0,0.0,0.00104872696102,-0.00165471830405,-0.0019662855193,0.01,0.0,0.0,0.0,0.01,0.0,0.0,0.0,0.01,-4.61760282516,0.809335768223,-8.42721939087,0.01,0.0,0.0,0.0,0.01,0.0,0.0,0.0,0.01
1585289618870180685,8267,1585289618869502692,foot_imu_link,-0.196492925286,-0.156693160534,-0.639956593513,0.726149737835,0.0,0.0,0.0,0.0,0.0,0.0,0.0,0.0,0.0,0.00113636441529,-0.00134993554093,0.000329514965415,0.01,0.0,0.0,0.0,0.01,0.0,0.0,0.0,0.01,-4.62577390671,0.806717097759,-8.41671657562,0.01,0.0,0.0,0.0,0.01,0.0,0.0,0.0,0.01
1585289618894990373,8268,1585289618894217461,foot_imu_link,-0.196478456259,-0.15671338141,-0.639951348305,0.72615391016,0.0,0.0,0.0,0.0,0.0,0.0,0.0,0.0,0.0,0.000853241421282,0.000333745847456,-0.0009291684255,0.01,0.0,0.0,0.0,0.01,0.0,0.0,0.0,0.01,-4.60473823547,0.786731958389,-8.39760017395,0.01,0.0,0.0,0.0,0.01,0.0,0.0,0.0,0.01
1585289618920041716,8269,1585289618919341804,foot_imu_link,-0.196452692151,-0.156699553132,-0.639944911003,0.726169526577,0.0,0.0,0.0,0.0,0.0,0.0,0.0,0.0,0.0,0.000357076525688,0.00175473524723,0.000817289575934,0.01,0.0,0.0,0.0,0.01,0.0,0.0,0.0,0.01,-4.65631532669,0.811750173569,-8.43763065338,0.01,0.0,0.0,0.0,0.01,0.0,0.0,0.0,0.01
1585289618945302716,8270,1585289618944136576,foot_imu_link,-0.196427747607,-0.156691074371,-0.639935076237,0.726186811924,0.0,0.0,0.0,0.0,0.0,0.0,0.0,0.0,0.0,0.000697058625519,0.00240693124942,0.00106070656329,0.01,0.0,0.0,0.0,0.01,0.0,0.0,0.0,0.01,-4.63599157333,0.818350195885,-8.41328144073,0.01,0.0,0.0,0.0,0.01,0.0,0.0,0.0,0.01
1585289618969119459,8271,1585289618968779212,foot_imu_link,-0.196375444531,-0.156675904989,-0.63993948698,0.726200222969,0.0,0.0,0.0,0.0,0.0,0.0,0.0,0.0,0.0,0.00248624943197,0.00441498588771,-0.000972606241703,0.01,0.0,0.0,0.0,0.01,0.0,0.0,0.0,0.01,-4.59588909149,0.812323689461,-8.43428897858,0.01,0.0,0.0,0.0,0.01,0.0,0.0,0.0,0.01
1585289618994141333,8272,1585289618993888311,foot_imu_link,-0.1962826401,-0.156676873565,-0.639964342117,0.726203203201,0.0,0.0,0.0,0.0,0.0,0.0,0.0,0.0,0.0,0.00801737233996,0.00261771073565,-0.00485281646252,0.01,0.0,0.0,0.0,0.01,0.0,0.0,0.0,0.01,-4.56219768524,0.83790564537,-8.44824028015,0.01,0.0,0.0,0.0,0.01,0.0,0.0,0.0,0.01
1585289619019841215,8273,1585289619018996788,foot_imu_link,-0.196227356791,-0.156678378582,-0.639975786209,0.726207792759,0.0,0.0,0.0,0.0,0.0,0.0,0.0,0.0,0.0,0.0017392616719,0.0017716557486,-0.000561604741961,0.01,0.0,0.0,0.0,0.01,0.0,0.0,0.0,0.01,-4.59231042862,0.793070554733,-8.42039394379,0.01,0.0,0.0,0.0,0.01,0.0,0.0,0.0,0.01
1585289619044904233,8274,1585289619043969643,foot_imu_link,-0.19617921114,-0.156665682793,-0.639995753765,0.726205945015,0.0,0.0,0.0,0.0,0.0,0.0,0.0,0.0,0.0,0.00382875744253,0.00333284353837,-0.00166291696951,0.01,0.0,0.0,0.0,0.01,0.0,0.0,0.0,0.01,-4.61314296722,0.841520309448,-8.40615272522,0.01,0.0,0.0,0.0,0.01,0.0,0.0,0.0,0.01
1585289619070425130,8275,1585289619069007635,foot_imu_link,-0.196133375168,-0.156656041741,-0.640022814274,0.726196587086,0.0,0.0,0.0,0.0,0.0,0.0,0.0,0.0,0.0,0.00260225636885,0.00328676356003,-0.000928211491555,0.01,0.0,0.0,0.0,0.01,0.0,0.0,0.0,0.01,-4.61387252808,0.820895433426,-8.41141319275,0.01,0.0,0.0,0.0,0.01,0.0,0.0,0.0,0.01
1585289619095880925,8276,1585289619095225122,foot_imu_link,-0.196082040668,-0.156635761261,-0.640031516552,0.726207077503,0.0,0.0,0.0,0.0,0.0,0.0,0.0,0.0,0.0,0.000665436498821,0.00440569967031,0.00123838242143,0.01,0.0,0.0,0.0,0.01,0.0,0.0,0.0,0.01,-4.61446905136,0.795717000961,-8.43702507019,0.01,0.0,0.0,0.0,0.01,0.0,0.0,0.0,0.01
1585289619119783208,8277,1585289619118999619,foot_imu_link,-0.196044072509,-0.156601160765,-0.640035927296,0.726220965385,0.0,0.0,0.0,0.0,0.0,0.0,0.0,0.0,0.0,0.000969850458205,0.00346335815266,0.00121477479115,0.01,0.0,0.0,0.0,0.01,0.0,0.0,0.0,0.01,-4.59259033203,0.799440264702,-8.42680168152,0.01,0.0,0.0,0.0,0.01,0.0,0.0,0.0,0.01
1585289619145585136,8278,1585289619144930408,foot_imu_link,-0.196006372571,-0.15656106174,-0.640029251575,0.726245641708,0.0,0.0,0.0,0.0,0.0,0.0,0.0,0.0,0.0,-0.000536606647074,0.00455831410363,0.00253113219514,0.01,0.0,0.0,0.0,0.01,0.0,0.0,0.0,0.01,-4.61871957779,0.811546683311,-8.4544172287,0.01,0.0,0.0,0.0,0.01,0.0,0.0,0.0,0.01
1585289619170691244,8279,1585289619169844583,foot_imu_link,-0.19596645236,-0.156500443816,-0.640021026134,0.726276755333,0.0,0.0,0.0,0.0,0.0,0.0,0.0,0.0,0.0,-0.00116731598973,0.00510960351676,0.00157124223188,0.01,0.0,0.0,0.0,0.01,0.0,0.0,0.0,0.01,-4.617603302,0.797045528889,-8.43885421753,0.01,0.0,0.0,0.0,0.01,0.0,0.0,0.0,0.01
1585289619195779140,8280,1585289619195101639,foot_imu_link,-0.195913523436,-0.156465694308,-0.64000505209,0.726312577724,0.0,0.0,0.0,0.0,0.0,0.0,0.0,0.0,0.0,0.00363681931049,0.00452143047005,0.00260675000027,0.01,0.0,0.0,0.0,0.01,0.0,0.0,0.0,0.01,-4.60508823395,0.808380246162,-8.43796157837,0.01,0.0,0.0,0.0,0.01,0.0,0.0,0.0,0.01
1585289619220753298,8281,1585289619219898178,foot_imu_link,-0.195884421468,-0.156425520778,-0.639980971813,0.726350307465,0.0,0.0,0.0,0.0,0.0,0.0,0.0,0.0,0.0,0.000149683095515,0.00433730753139,0.00329259503633,0.01,0.0,0.0,0.0,0.01,0.0,0.0,0.0,0.01,-4.60234355927,0.796595394611,-8.44612693787,0.01,0.0,0.0,0.0,0.01,0.0,0.0,0.0,0.01
1585289619245530873,8282,1585289619244791027,foot_imu_link,-0.19587624073,-0.156386256218,-0.639967501163,0.726372778416,0.0,0.0,0.0,0.0,0.0,0.0,0.0,0.0,0.0,-0.00207983888686,0.00151060696226,0.00257206754759,0.01,0.0,0.0,0.0,0.01,0.0,0.0,0.0,0.01,-4.58448600769,0.803671836853,-8.39801979065,0.01,0.0,0.0,0.0,0.01,0.0,0.0,0.0,0.01
1585289619270594800,8283,1585289619269897051,foot_imu_link,-0.195909217,-0.156360194087,-0.639955639839,0.726379930973,0.0,0.0,0.0,0.0,0.0,0.0,0.0,0.0,0.0,-0.00236221216619,-0.00200210418552,0.00158124463633,0.01,0.0,0.0,0.0,0.01,0.0,0.0,0.0,0.01,-4.57513523102,0.844473421574,-8.43103122711,0.01,0.0,0.0,0.0,0.01,0.0,0.0,0.0,0.01
1585289619295263089,8284,1585289619294610490,foot_imu_link,-0.195949032903,-0.156363114715,-0.639957547188,0.72636693716,0.0,0.0,0.0,0.0,0.0,0.0,0.0,0.0,0.0,-0.00203183945268,-0.0031813250389,0.00054625235498,0.01,0.0,0.0,0.0,0.01,0.0,0.0,0.0,0.01,-4.61521720886,0.779025614262,-8.43589305878,0.01,0.0,0.0,0.0,0.01,0.0,0.0,0.0,0.01
1585289619320785739,8285,1585289619319683706,foot_imu_link,-0.195974960923,-0.156384259462,-0.63995808363,0.726355016232,0.0,0.0,0.0,0.0,0.0,0.0,0.0,0.0,0.0,-0.000254051759839,-0.00195284246001,-0.000912414863706,0.01,0.0,0.0,0.0,0.01,0.0,0.0,0.0,0.01,-4.60792922974,0.799166321754,-8.44706535339,0.01,0.0,0.0,0.0,0.01,0.0,0.0,0.0,0.01
1585289619345719358,8286,1585289619344921851,foot_imu_link,-0.195999771357,-0.156390309334,-0.639961004257,0.726344406605,0.0,0.0,0.0,0.0,0.0,0.0,0.0,0.0,0.0,-0.00113661214709,-0.00251757120714,9.95211303234e-06,0.01,0.0,0.0,0.0,0.01,0.0,0.0,0.0,0.01,-4.63660144806,0.815995931625,-8.44705486298,0.01,0.0,0.0,0.0,0.01,0.0,0.0,0.0,0.01
1585289619370391748,8287,1585289619369711101,foot_imu_link,-0.196013957262,-0.156408965588,-0.63995808363,0.726339042187,0.0,0.0,0.0,0.0,0.0,0.0,0.0,0.0,0.0,-0.000128666870296,-0.00261998153292,-0.00107253435999,0.01,0.0,0.0,0.0,0.01,0.0,0.0,0.0,0.01,-4.57783460617,0.801330685616,-8.4167098999,0.01,0.0,0.0,0.0,0.01,0.0,0.0,0.0,0.01
1585289619395876342,8288,1585289619394693803,foot_imu_link,-0.196027219296,-0.156428843737,-0.639968156815,0.726322352886,0.0,0.0,0.0,0.0,0.0,0.0,0.0,0.0,0.0,-0.000797330401838,-0.000690512708388,-0.00041469046846,0.01,0.0,0.0,0.0,0.01,0.0,0.0,0.0,0.01,-4.60440349579,0.795798838139,-8.38821792603,0.01,0.0,0.0,0.0,0.01,0.0,0.0,0.0,0.01
1585289619420485954,8289,1585289619419781503,foot_imu_link,-0.196052029729,-0.156447440386,-0.639971017838,0.72630918026,0.0,0.0,0.0,0.0,0.0,0.0,0.0,0.0,0.0,-0.0016509834677,-0.00313609233126,-0.00129151297733,0.01,0.0,0.0,0.0,0.01,0.0,0.0,0.0,0.01,-4.61139678955,0.818385660648,-8.43933296204,0.01,0.0,0.0,0.0,0.01,0.0,0.0,0.0,0.01
1585289619451238278,8290,1585289619444779997,foot_imu_link,-0.196074604988,-0.156453847885,-0.639981508255,0.726292431355,0.0,0.0,0.0,0.0,0.0,0.0,0.0,0.0,0.0,-0.000656573101878,-0.000994844012894,0.00025730766356,0.01,0.0,0.0,0.0,0.01,0.0,0.0,0.0,0.01,-4.61375999451,0.810973763466,-8.43561458588,0.01,0.0,0.0,0.0,0.01,0.0,0.0,0.0,0.01
1585289619469443815,8291,1585289619469058730,foot_imu_link,-0.196080476046,-0.156459316611,-0.639973580837,0.72629660368,0.0,0.0,0.0,0.0,0.0,0.0,0.0,0.0,0.0,-0.000887042842805,-0.000229091150686,0.00201311614364,0.01,0.0,0.0,0.0,0.01,0.0,0.0,0.0,0.01,-4.63406085968,0.79575496912,-8.43626785278,0.01,0.0,0.0,0.0,0.01,0.0,0.0,0.0,0.01
1585289619494471637,8292,1585289619494001447,foot_imu_link,-0.196089059114,-0.156452953815,-0.639968931675,0.72629982233,0.0,0.0,0.0,0.0,0.0,0.0,0.0,0.0,0.0,-0.00155423022807,0.000270349089988,0.000358238816261,0.01,0.0,0.0,0.0,0.01,0.0,0.0,0.0,0.01,-4.60524129868,0.811134696007,-8.41083717346,0.01,0.0,0.0,0.0,0.01,0.0,0.0,0.0,0.01
1585289619519225026,8293,1585289619519060311,foot_imu_link,-0.19607976079,-0.156430155039,-0.639974892139,0.726301908493,0.0,0.0,0.0,0.0,0.0,0.0,0.0,0.0,0.0,-0.000550733879209,0.00215409975499,0.000847296323627,0.01,0.0,0.0,0.0,0.01,0.0,0.0,0.0,0.01,-4.62385129929,0.826341092587,-8.41561889648,0.01,0.0,0.0,0.0,0.01,0.0,0.0,0.0,0.01
1585289619544387791,8294,1585289619544091522,foot_imu_link,-0.196071043611,-0.156406372786,-0.639989435673,0.726296663284,0.0,0.0,0.0,0.0,0.0,0.0,0.0,0.0,0.0,-0.000483565032482,0.00116918282583,-6.29387795925e-05,0.01,0.0,0.0,0.0,0.01,0.0,0.0,0.0,0.01,-4.59916400909,0.810073852539,-8.43499565125,0.01,0.0,0.0,0.0,0.01,0.0,0.0,0.0,0.01
1585289619569377362,8295,1585289619569085741,foot_imu_link,-0.196078062057,-0.156391844153,-0.639991104603,0.726296365261,0.0,0.0,0.0,0.0,0.0,0.0,0.0,0.0,0.0,-0.00149336550385,-0.000437260605395,0.00293046887964,0.01,0.0,0.0,0.0,0.01,0.0,0.0,0.0,0.01,-4.58314228058,0.809267640114,-8.43569564819,0.01,0.0,0.0,0.0,0.01,0.0,0.0,0.0,0.01
1585289619595233966,8296,1585289619594527001,foot_imu_link,-0.196101248264,-0.156389802694,-0.639987170696,0.726293981075,0.0,0.0,0.0,0.0,0.0,0.0,0.0,0.0,0.0,-0.000231513753533,-0.0019271587953,-0.000105085782707,0.01,0.0,0.0,0.0,0.01,0.0,0.0,0.0,0.01,-4.6006603241,0.79235035181,-8.40875911713,0.01,0.0,0.0,0.0,0.01,0.0,0.0,0.0,0.01
1585289619620075575,8297,1585289619619316518,foot_imu_link,-0.196112558246,-0.156375423074,-0.639999866486,0.726282894611,0.0,0.0,0.0,0.0,0.0,0.0,0.0,0.0,0.0,-0.00113155972213,-0.000312463380396,-0.000537703279406,0.01,0.0,0.0,0.0,0.01,0.0,0.0,0.0,0.01,-4.60915756226,0.827526807785,-8.43408679962,0.01,0.0,0.0,0.0,0.01,0.0,0.0,0.0,0.01
1585289619645221843,8298,1585289619644515704,foot_imu_link,-0.196121349931,-0.156371951103,-0.640007197857,0.72627478838,0.0,0.0,0.0,0.0,0.0,0.0,0.0,0.0,0.0,-0.000146272592247,-0.000507031742018,-0.000429222825915,0.01,0.0,0.0,0.0,0.01,0.0,0.0,0.0,0.01,-4.61009979248,0.804105222225,-8.43043613434,0.01,0.0,0.0,0.0,0.01,0.0,0.0,0.0,0.01
1585289619670171861,8299,1585289619669513009,foot_imu_link,-0.196113273501,-0.156362950802,-0.640011370182,0.726275265217,0.0,0.0,0.0,0.0,0.0,0.0,0.0,0.0,0.0,0.00027425494045,0.000763252144679,0.000786671414971,0.01,0.0,0.0,0.0,0.01,0.0,0.0,0.0,0.01,-4.6097650528,0.802810966969,-8.42021179199,0.01,0.0,0.0,0.0,0.01,0.0,0.0,0.0,0.01
1585289619695155117,8300,1585289619694357873,foot_imu_link,-0.196097582579,-0.156358063221,-0.640008747578,0.726282835007,0.0,0.0,0.0,0.0,0.0,0.0,0.0,0.0,0.0,-0.000593705102801,-0.00027959421277,0.0011344095692,0.01,0.0,0.0,0.0,0.01,0.0,0.0,0.0,0.01,-4.614320755,0.800675868988,-8.4198551178,0.01,0.0,0.0,0.0,0.01,0.0,0.0,0.0,0.01
1585289619720115470,8301,1585289619719459627,foot_imu_link,-0.196080759168,-0.156349614263,-0.640011250973,0.726287007332,0.0,0.0,0.0,0.0,0.0,0.0,0.0,0.0,0.0,2.26255506277e-05,0.00153446977492,0.000995057635009,0.01,0.0,0.0,0.0,0.01,0.0,0.0,0.0,0.01,-4.58551979065,0.806841671467,-8.45350837708,0.01,0.0,0.0,0.0,0.01,0.0,0.0,0.0,0.01
1585289619745124223,8302,1585289619744450907,foot_imu_link,-0.196070313454,-0.15634098649,-0.64000660181,0.726295828819,0.0,0.0,0.0,0.0,0.0,0.0,0.0,0.0,0.0,-0.00115382578224,-0.000298896164168,0.00145339313895,0.01,0.0,0.0,0.0,0.01,0.0,0.0,0.0,0.01,-4.61562728882,0.838824987411,-8.45629310608,0.01,0.0,0.0,0.0,0.01,0.0,0.0,0.0,0.01
1585289619770135233,8303,1585289619769243867,foot_imu_link,-0.196066230536,-0.156338870525,-0.640017032623,0.72628813982,0.0,0.0,0.0,0.0,0.0,0.0,0.0,0.0,0.0,0.000553829595447,-0.000507915741764,0.000227618031204,0.01,0.0,0.0,0.0,0.01,0.0,0.0,0.0,0.01,-4.59726905823,0.810471117496,-8.41938686371,0.01,0.0,0.0,0.0,0.01,0.0,0.0,0.0,0.01
1585289619794848322,8304,1585289619794077246,foot_imu_link,-0.196045398712,-0.156344354153,-0.640023350716,0.726286947727,0.0,0.0,0.0,0.0,0.0,0.0,0.0,0.0,0.0,-0.00112490635365,-0.00111105851829,0.000168420374393,0.01,0.0,0.0,0.0,0.01,0.0,0.0,0.0,0.01,-4.58142471313,0.810981035233,-8.44351959229,0.01,0.0,0.0,0.0,0.01,0.0,0.0,0.0,0.01
1585289619819744167,8305,1585289619819071415,foot_imu_link,-0.196057185531,-0.156352996826,-0.640009462833,0.726294159889,0.0,0.0,0.0,0.0,0.0,0.0,0.0,0.0,0.0,0.000457098707557,-0.000249412842095,-0.000769116450101,0.01,0.0,0.0,0.0,0.01,0.0,0.0,0.0,0.01,-4.59703922272,0.814925670624,-8.41633415222,0.01,0.0,0.0,0.0,0.01,0.0,0.0,0.0,0.01
1585289619844944319,8306,1585289619844185942,foot_imu_link,-0.196060374379,-0.15635702014,-0.640025913715,0.72627800703,0.0,0.0,0.0,0.0,0.0,0.0,0.0,0.0,0.0,0.00112521555275,-0.00117911852431,-0.00148360105231,0.01,0.0,0.0,0.0,0.01,0.0,0.0,0.0,0.01,-4.61936426163,0.818187236786,-8.40369415283,0.01,0.0,0.0,0.0,0.01,0.0,0.0,0.0,0.01
1585289619870201701,8307,1585289619869194115,foot_imu_link,-0.196046561003,-0.156378641725,-0.640035569668,0.726268529892,0.0,0.0,0.0,0.0,0.0,0.0,0.0,0.0,0.0,0.000226366333663,-0.0018755447818,-0.00079326890409,0.01,0.0,0.0,0.0,0.01,0.0,0.0,0.0,0.01,-4.61183166504,0.811998784542,-8.43484306335,0.01,0.0,0.0,0.0,0.01,0.0,0.0,0.0,0.01
1585289619894730879,8308,1585289619894067987,foot_imu_link,-0.196058735251,-0.156415358186,-0.640051484108,0.726243317127,0.0,0.0,0.0,0.0,0.0,0.0,0.0,0.0,0.0,0.000631008297205,-0.00452294899151,-0.000271359924227,0.01,0.0,0.0,0.0,0.01,0.0,0.0,0.0,0.01,-4.61871528625,0.799843609333,-8.43894767761,0.01,0.0,0.0,0.0,0.01,0.0,0.0,0.0,0.01
1585289619919794544,8309,1585289619919031018,foot_imu_link,-0.196091219783,-0.156471565366,-0.640061080456,0.726213932037,0.0,0.0,0.0,0.0,0.0,0.0,0.0,0.0,0.0,0.000388436019421,-0.00414067879319,0.000178317539394,0.01,0.0,0.0,0.0,0.01,0.0,0.0,0.0,0.01,-4.61932182312,0.812860846519,-8.43482494354,0.01,0.0,0.0,0.0,0.01,0.0,0.0,0.0,0.01
1585289619944909092,8310,1585289619944004698,foot_imu_link,-0.19609194994,-0.156510725617,-0.640065252781,0.726201653481,0.0,0.0,0.0,0.0,0.0,0.0,0.0,0.0,0.0,0.000820863060653,-0.000107634579763,-0.00117752980441,0.01,0.0,0.0,0.0,0.01,0.0,0.0,0.0,0.01,-4.61484098434,0.800122916698,-8.43048667908,0.01,0.0,0.0,0.0,0.01,0.0,0.0,0.0,0.01
1585289619969810181,8311,1585289619968993013,foot_imu_link,-0.19607655704,-0.156524553895,-0.640082299709,0.726187825203,0.0,0.0,0.0,0.0,0.0,0.0,0.0,0.0,0.0,0.00128866825253,-0.000192389299627,-0.000499114394188,0.01,0.0,0.0,0.0,0.01,0.0,0.0,0.0,0.01,-4.60321998596,0.804784357548,-8.37403488159,0.01,0.0,0.0,0.0,0.01,0.0,0.0,0.0,0.01
1585289619994914412,8312,1585289619994027333,foot_imu_link,-0.196069046855,-0.15653668344,-0.64010232687,0.726169645786,0.0,0.0,0.0,0.0,0.0,0.0,0.0,0.0,0.0,0.000775127671659,-0.000707844388671,-0.00143639883026,0.01,0.0,0.0,0.0,0.01,0.0,0.0,0.0,0.01,-4.59977722168,0.800013065338,-8.43675613403,0.01,0.0,0.0,0.0,0.01,0.0,0.0,0.0,0.01
1585289620019790840,8313,1585289620018908053,foot_imu_link,-0.196069806814,-0.156538382173,-0.6401065588,0.726165235043,0.0,0.0,0.0,0.0,0.0,0.0,0.0,0.0,0.0,-0.000261782668531,-0.000664792722091,-0.00161539390683,0.01,0.0,0.0,0.0,0.01,0.0,0.0,0.0,0.01,-4.5929684639,0.787653207779,-8.42612838745,0.01,0.0,0.0,0.0,0.01,0.0,0.0,0.0,0.01
1585289620044668126,8314,1585289620043820981,foot_imu_link,-0.196062117815,-0.156555354595,-0.64012414217,0.726148247719,0.0,0.0,0.0,0.0,0.0,0.0,0.0,0.0,0.0,0.000588673166931,-0.00156571681146,-0.00184727227315,0.01,0.0,0.0,0.0,0.01,0.0,0.0,0.0,0.01,-4.60477161407,0.811184048653,-8.45594120026,0.01,0.0,0.0,0.0,0.01,0.0,0.0,0.0,0.01
1585289620069684425,8315,1585289620068949455,foot_imu_link,-0.196068555117,-0.156593978405,-0.640124619007,0.726137697697,0.0,0.0,0.0,0.0,0.0,0.0,0.0,0.0,0.0,0.000402502715588,-0.000840301567223,-0.00136248907074,0.01,0.0,0.0,0.0,0.01,0.0,0.0,0.0,0.01,-4.62809896469,0.787512600422,-8.41184902191,0.01,0.0,0.0,0.0,0.01,0.0,0.0,0.0,0.01
1585289620094824037,8316,1585289620093798392,foot_imu_link,-0.196050867438,-0.156603381038,-0.640138745308,0.726128041744,0.0,0.0,0.0,0.0,0.0,0.0,0.0,0.0,0.0,-0.000170824117959,-0.000522591464687,-0.00148889515549,0.01,0.0,0.0,0.0,0.01,0.0,0.0,0.0,0.01,-4.58774662018,0.793418228626,-8.42382621765,0.01,0.0,0.0,0.0,0.01,0.0,0.0,0.0,0.01
1585289620119405819,8317,1585289620118706598,foot_imu_link,-0.196059912443,-0.156608551741,-0.640158295631,0.726107239723,0.0,0.0,0.0,0.0,0.0,0.0,0.0,0.0,0.0,-0.00127636361867,-0.000216077954974,-6.74040056765e-05,0.01,0.0,0.0,0.0,0.01,0.0,0.0,0.0,0.01,-4.62408876419,0.781708180904,-8.44733047485,0.01,0.0,0.0,0.0,0.01,0.0,0.0,0.0,0.01
1585289620144498953,8318,1585289620143682943,foot_imu_link,-0.196049034595,-0.156600281596,-0.640167057514,0.726104259491,0.0,0.0,0.0,0.0,0.0,0.0,0.0,0.0,0.0,-0.000623870640993,0.000460327020846,0.000633248593658,0.01,0.0,0.0,0.0,0.01,0.0,0.0,0.0,0.01,-4.59946775436,0.803849339485,-8.46209812164,0.01,0.0,0.0,0.0,0.01,0.0,0.0,0.0,0.01
1585289620169421934,8319,1585289620168634558,foot_imu_link,-0.196046173573,-0.156584277749,-0.640170693398,0.726105153561,0.0,0.0,0.0,0.0,0.0,0.0,0.0,0.0,0.0,-0.0020293937996,0.000918129575439,-0.000866767484695,0.01,0.0,0.0,0.0,0.01,0.0,0.0,0.0,0.01,-4.61472797394,0.809453845024,-8.44106388092,0.01,0.0,0.0,0.0,0.01,0.0,0.0,0.0,0.01
1585289620194543136,8320,1585289620193681942,foot_imu_link,-0.196042969823,-0.156583055854,-0.640185177326,0.72609359026,0.0,0.0,0.0,0.0,0.0,0.0,0.0,0.0,0.0,-0.000497154891491,-0.00191797991283,-0.000955402851105,0.01,0.0,0.0,0.0,0.01,0.0,0.0,0.0,0.01,-4.60854816437,0.811423063278,-8.41340065002,0.01,0.0,0.0,0.0,0.01,0.0,0.0,0.0,0.01
1585289620219382782,8321,1585289620218697699,foot_imu_link,-0.19604434073,-0.156581580639,-0.640189170837,0.726090013981,0.0,0.0,0.0,0.0,0.0,0.0,0.0,0.0,0.0,-0.000689402222633,-0.000527984637301,0.000478511210531,0.01,0.0,0.0,0.0,0.01,0.0,0.0,0.0,0.01,-4.61365604401,0.821670055389,-8.3991355896,0.01,0.0,0.0,0.0,0.01,0.0,0.0,0.0,0.01
1585289620244413946,8322,1585289620243750791,foot_imu_link,-0.19604177773,-0.156568646431,-0.640203893185,0.726080596447,0.0,0.0,0.0,0.0,0.0,0.0,0.0,0.0,0.0,-0.000697758048773,0.000440768431872,-0.000615176279098,0.01,0.0,0.0,0.0,0.01,0.0,0.0,0.0,0.01,-4.62849283218,0.819235026836,-8.41588783264,0.01,0.0,0.0,0.0,0.01,0.0,0.0,0.0,0.01
1585289620269101688,8323,1585289620268479415,foot_imu_link,-0.196048587561,-0.156566038728,-0.640198230743,0.72608423233,0.0,0.0,0.0,0.0,0.0,0.0,0.0,0.0,0.0,0.000631601549685,0.000448587234132,-0.00125897768885,0.01,0.0,0.0,0.0,0.01,0.0,0.0,0.0,0.01,-4.61899709702,0.803448855877,-8.41056919098,0.01,0.0,0.0,0.0,0.01,0.0,0.0,0.0,0.01
1585289620295101307,8324,1585289620294516257,foot_imu_link,-0.196028009057,-0.15656735003,-0.640210270882,0.726078927517,0.0,0.0,0.0,0.0,0.0,0.0,0.0,0.0,0.0,0.00130912940949,0.00154749129433,-0.000733984168619,0.01,0.0,0.0,0.0,0.01,0.0,0.0,0.0,0.01,-4.59396266937,0.810400187969,-8.43340969086,0.01,0.0,0.0,0.0,0.01,0.0,0.0,0.0,0.01
1585289620319116855,8325,1585289620318520484,foot_imu_link,-0.19599942863,-0.15656016767,-0.6402156353,0.726083397865,0.0,0.0,0.0,0.0,0.0,0.0,0.0,0.0,0.0,0.00190365314484,0.000920760096051,4.06708568335e-05,0.01,0.0,0.0,0.0,0.01,0.0,0.0,0.0,0.01,-4.62375164032,0.814609646797,-8.4299955368,0.01,0.0,0.0,0.0,0.01,0.0,0.0,0.0,0.01
1585289620345328396,8326,1585289620344683693,foot_imu_link,-0.195975542068,-0.156553447247,-0.640221297741,0.726086318493,0.0,0.0,0.0,0.0,0.0,0.0,0.0,0.0,0.0,0.00101164821535,0.000977618270554,0.000192828476429,0.01,0.0,0.0,0.0,0.01,0.0,0.0,0.0,0.01,-4.62826728821,0.809016346931,-8.44520378113,0.01,0.0,0.0,0.0,0.01,0.0,0.0,0.0,0.01
1585289620370112868,8327,1585289620369462885,foot_imu_link,-0.195962369442,-0.156562969089,-0.64022487402,0.726084649563,0.0,0.0,0.0,0.0,0.0,0.0,0.0,0.0,0.0,0.000491206534207,0.00108300347347,0.000454948749393,0.01,0.0,0.0,0.0,0.01,0.0,0.0,0.0,0.01,-4.60083723068,0.797493875027,-8.41407680511,0.01,0.0,0.0,0.0,0.01,0.0,0.0,0.0,0.01
1585289620395532762,8328,1585289620394546189,foot_imu_link,-0.195943593979,-0.156561329961,-0.640230119228,0.726085424423,0.0,0.0,0.0,0.0,0.0,0.0,0.0,0.0,0.0,0.000410159118474,0.000420876545832,0.000387022271752,0.01,0.0,0.0,0.0,0.01,0.0,0.0,0.0,0.01,-4.62102413177,0.796281337738,-8.41855144501,0.01,0.0,0.0,0.0,0.01,0.0,0.0,0.0,0.01
1585289620420638956,8329,1585289620419374620,foot_imu_link,-0.195940420032,-0.156544268131,-0.640222668648,0.726096510887,0.0,0.0,0.0,0.0,0.0,0.0,0.0,0.0,0.0,-0.000721427612007,-0.000633286312222,0.00018695415929,0.01,0.0,0.0,0.0,0.01,0.0,0.0,0.0,0.01,-4.60455989838,0.795812785625,-8.43708229065,0.01,0.0,0.0,0.0,0.01,0.0,0.0,0.0,0.01
1585289620445440240,8330,1585289620444485342,foot_imu_link,-0.195969954133,-0.156545549631,-0.640217840672,0.726092517376,0.0,0.0,0.0,0.0,0.0,0.0,0.0,0.0,0.0,-0.00286694057286,-0.00081058422802,0.00140857324004,0.01,0.0,0.0,0.0,0.01,0.0,0.0,0.0,0.01,-4.61774158478,0.79123210907,-8.4134645462,0.01,0.0,0.0,0.0,0.01,0.0,0.0,0.0,0.01
1585289620470214341,8331,1585289620469428726,foot_imu_link,-0.196010574698,-0.156530693173,-0.640214920044,0.726087391376,0.0,0.0,0.0,0.0,0.0,0.0,0.0,0.0,0.0,-0.00304110068828,-0.00157346681226,0.000996576156467,0.01,0.0,0.0,0.0,0.01,0.0,0.0,0.0,0.01,-4.59204387665,0.826963067055,-8.42611694336,0.01,0.0,0.0,0.0,0.01,0.0,0.0,0.0,0.01
1585289620495396400,8332,1585289620494570418,foot_imu_link,-0.196038737893,-0.15652371943,-0.64020639658,0.726088821888,0.0,0.0,0.0,0.0,0.0,0.0,0.0,0.0,0.0,-0.00170153565705,-0.000348543399014,-0.000268725678325,0.01,0.0,0.0,0.0,0.01,0.0,0.0,0.0,0.01,-4.63588428497,0.800426244736,-8.42924499512,0.01,0.0,0.0,0.0,0.01,0.0,0.0,0.0,0.01
1585289620519898086,8333,1585289620519262185,foot_imu_link,-0.196053653955,-0.156509652734,-0.640185296535,0.726106405258,0.0,0.0,0.0,0.0,0.0,0.0,0.0,0.0,0.0,-0.00240860879421,-0.000204133451916,0.00319250812754,0.01,0.0,0.0,0.0,0.01,0.0,0.0,0.0,0.01,-4.59468746185,0.799941837788,-8.41312789917,0.01,0.0,0.0,0.0,0.01,0.0,0.0,0.0,0.01
1585289620544248270,8334,1585289620543947926,foot_imu_link,-0.196070700884,-0.156488195062,-0.640172362328,0.726117908955,0.0,0.0,0.0,0.0,0.0,0.0,0.0,0.0,0.0,-0.00278514157981,-0.00103928055614,0.00134709244594,0.01,0.0,0.0,0.0,0.01,0.0,0.0,0.0,0.01,-4.59246826172,0.801561653614,-8.43161392212,0.01,0.0,0.0,0.0,0.01,0.0,0.0,0.0,0.01
1585289620569685606,8335,1585289620569221742,foot_imu_link,-0.196088820696,-0.156489789486,-0.640165328979,0.726118862629,0.0,0.0,0.0,0.0,0.0,0.0,0.0,0.0,0.0,-0.000240013934672,8.88913637027e-05,0.000748394522816,0.01,0.0,0.0,0.0,0.01,0.0,0.0,0.0,0.01,-4.62555980682,0.806084632874,-8.43109798431,0.01,0.0,0.0,0.0,0.01,0.0,0.0,0.0,0.01
1585289620595362853,8336,1585289620594294898,foot_imu_link,-0.196079611778,-0.156491860747,-0.640170812607,0.726116061211,0.0,0.0,0.0,0.0,0.0,0.0,0.0,0.0,0.0,0.00102697126567,-0.00110156903975,-0.000925661530346,0.01,0.0,0.0,0.0,0.01,0.0,0.0,0.0,0.01,-4.60553455353,0.825761318207,-8.41147994995,0.01,0.0,0.0,0.0,0.01,0.0,0.0,0.0,0.01
1585289620620049571,8337,1585289620619357850,foot_imu_link,-0.19605794549,-0.156509459019,-0.640178740025,0.726111114025,0.0,0.0,0.0,0.0,0.0,0.0,0.0,0.0,0.0,0.00124130770564,0.000244195922278,-0.0004973243922,0.01,0.0,0.0,0.0,0.01,0.0,0.0,0.0,0.01,-4.58734416962,0.787386536598,-8.4269695282,0.01,0.0,0.0,0.0,0.01,0.0,0.0,0.0,0.01
1585289620644960433,8338,1585289620644280998,foot_imu_link,-0.196036070585,-0.156518548727,-0.640195131302,0.726100623608,0.0,0.0,0.0,0.0,0.0,0.0,0.0,0.0,0.0,0.000774133019149,-0.000721800024621,-0.00176643300802,0.01,0.0,0.0,0.0,0.01,0.0,0.0,0.0,0.01,-4.61652374268,0.79173386097,-8.44245243073,0.01,0.0,0.0,0.0,0.01,0.0,0.0,0.0,0.01
1585289620670026558,8339,1585289620669336094,foot_imu_link,-0.196035400033,-0.156537219882,-0.640200078487,0.726092338562,0.0,0.0,0.0,0.0,0.0,0.0,0.0,0.0,0.0,0.000988205894828,0.000221234164201,-0.000518469605595,0.01,0.0,0.0,0.0,0.01,0.0,0.0,0.0,0.01,-4.61020898819,0.800066590309,-8.437084198,0.01,0.0,0.0,0.0,0.01,0.0,0.0,0.0,0.01
1585289620694735028,8340,1585289620694081387,foot_imu_link,-0.196014046669,-0.156542599201,-0.640202641487,0.726094782352,0.0,0.0,0.0,0.0,0.0,0.0,0.0,0.0,0.0,0.000398307107389,-0.000435518450104,1.02943740785e-05,0.01,0.0,0.0,0.0,0.01,0.0,0.0,0.0,0.01,-4.61876630783,0.794018089771,-8.44475746155,0.01,0.0,0.0,0.0,0.01,0.0,0.0,0.0,0.01
1585289620719666311,8341,1585289620719025987,foot_imu_link,-0.196006551385,-0.156553253531,-0.640204370022,0.726092875004,0.0,0.0,0.0,0.0,0.0,0.0,0.0,0.0,0.0,-0.000230393372476,-0.000344398547895,-0.00121025461704,0.01,0.0,0.0,0.0,0.01,0.0,0.0,0.0,0.01,-4.61261081696,0.797295689583,-8.42117595673,0.01,0.0,0.0,0.0,0.01,0.0,0.0,0.0,0.01
1585289620744697569,8342,1585289620744007505,foot_imu_link,-0.196003958583,-0.156579688191,-0.640208363533,0.72608435154,0.0,0.0,0.0,0.0,0.0,0.0,0.0,0.0,0.0,0.000694661401212,-0.000497795990668,-0.000937392935157,0.01,0.0,0.0,0.0,0.01,0.0,0.0,0.0,0.01,-4.59098815918,0.813149154186,-8.40691184998,0.01,0.0,0.0,0.0,0.01,0.0,0.0,0.0,0.01
1585289620769802180,8343,1585289620769104135,foot_imu_link,-0.195990771055,-0.156588792801,-0.640227377415,0.726069271564,0.0,0.0,0.0,0.0,0.0,0.0,0.0,0.0,0.0,-0.000147906132042,0.0013034545118,-0.0013597686775,0.01,0.0,0.0,0.0,0.01,0.0,0.0,0.0,0.01,-4.60969877243,0.807551920414,-8.45065498352,0.01,0.0,0.0,0.0,0.01,0.0,0.0,0.0,0.01
1585289620794656887,8344,1585289620794008377,foot_imu_link,-0.195972144604,-0.156606987119,-0.640230178833,0.726067841053,0.0,0.0,0.0,0.0,0.0,0.0,0.0,0.0,0.0,0.00261222291738,-0.0023699302692,-0.00157538754866,0.01,0.0,0.0,0.0,0.01,0.0,0.0,0.0,0.01,-4.5748128891,0.81239259243,-8.42051124573,0.01,0.0,0.0,0.0,0.01,0.0,0.0,0.0,0.01
1585289620819926825,8345,1585289620819263133,foot_imu_link,-0.195971086621,-0.156625047326,-0.640244841576,0.726051330566,0.0,0.0,0.0,0.0,0.0,0.0,0.0,0.0,0.0,0.000949757173657,-0.00089191889856,-0.000803799368441,0.01,0.0,0.0,0.0,0.01,0.0,0.0,0.0,0.01,-4.62212562561,0.797785997391,-8.4305896759,0.01,0.0,0.0,0.0,0.01,0.0,0.0,0.0,0.01
1585289620844781343,8346,1585289620844129384,foot_imu_link,-0.195961043239,-0.156641036272,-0.640249013901,0.726046860218,0.0,0.0,0.0,0.0,0.0,0.0,0.0,0.0,0.0,0.00126580521464,0.000231052632444,-0.000198398716748,0.01,0.0,0.0,0.0,0.01,0.0,0.0,0.0,0.01,-4.61557292938,0.811333477497,-8.43355083466,0.01,0.0,0.0,0.0,0.01,0.0,0.0,0.0,0.01
1585289620869614910,8347,1585289620868920092,foot_imu_link,-0.19594836235,-0.156655296683,-0.640254855156,0.726042151451,0.0,0.0,0.0,0.0,0.0,0.0,0.0,0.0,0.0,0.000564691610634,-5.09358942509e-05,-0.000711673870683,0.01,0.0,0.0,0.0,0.01,0.0,0.0,0.0,0.01,-4.59227085114,0.815183401108,-8.41671943665,0.01,0.0,0.0,0.0,0.01,0.0,0.0,0.0,0.01
1585289620894612834,8348,1585289620893972748,foot_imu_link,-0.195936396718,-0.15667116642,-0.640268206596,0.726030170918,0.0,0.0,0.0,0.0,0.0,0.0,0.0,0.0,0.0,0.00100617669523,-0.000732599757612,-0.00132353277877,0.01,0.0,0.0,0.0,0.01,0.0,0.0,0.0,0.01,-4.64501428604,0.807773351669,-8.42937278748,0.01,0.0,0.0,0.0,0.01,0.0,0.0,0.0,0.01
1585289620919760379,8349,1585289620919078759,foot_imu_link,-0.19592615962,-0.156694576144,-0.640284657478,0.726013362408,0.0,0.0,0.0,0.0,0.0,0.0,0.0,0.0,0.0,0.000466947443783,-0.000521380221471,-0.000441034790128,0.01,0.0,0.0,0.0,0.01,0.0,0.0,0.0,0.01,-4.62597703934,0.807678341866,-8.42293739319,0.01,0.0,0.0,0.0,0.01,0.0,0.0,0.0,0.01
1585289620944695430,8350,1585289620944029266,foot_imu_link,-0.195925742388,-0.156694680452,-0.640287220478,0.726011097431,0.0,0.0,0.0,0.0,0.0,0.0,0.0,0.0,0.0,-0.000127884559333,0.00107629748527,0.000597023870796,0.01,0.0,0.0,0.0,0.01,0.0,0.0,0.0,0.01,-4.61661577225,0.797881126404,-8.44869613647,0.01,0.0,0.0,0.0,0.01,0.0,0.0,0.0,0.01
1585289620969570802,8351,1585289620968907216,foot_imu_link,-0.195927858353,-0.15669490397,-0.640283048153,0.726014196873,0.0,0.0,0.0,0.0,0.0,0.0,0.0,0.0,0.0,-0.000241263769567,-0.0013485418167,0.000311953481287,0.01,0.0,0.0,0.0,0.01,0.0,0.0,0.0,0.01,-4.6195807457,0.813396394253,-8.43131828308,0.01,0.0,0.0,0.0,0.01,0.0,0.0,0.0,0.01
1585289620994444273,8352,1585289620993779344,foot_imu_link,-0.195937678218,-0.156681641936,-0.640279531479,0.726017475128,0.0,0.0,0.0,0.0,0.0,0.0,0.0,0.0,0.0,-0.000128803774714,-0.000388078740798,-0.000134357251227,0.01,0.0,0.0,0.0,0.01,0.0,0.0,0.0,0.01,-4.60848045349,0.806084513664,-8.43321037292,0.01,0.0,0.0,0.0,0.01,0.0,0.0,0.0,0.01
1585289621019537790,8353,1585289621018731085,foot_imu_link,-0.195960104465,-0.156681060791,-0.640285372734,0.726006448269,0.0,0.0,0.0,0.0,0.0,0.0,0.0,0.0,0.0,-0.000663467682898,-0.00385269615799,-0.000150501728058,0.01,0.0,0.0,0.0,0.01,0.0,0.0,0.0,0.01,-4.61583757401,0.785422801971,-8.45020484924,0.01,0.0,0.0,0.0,0.01,0.0,0.0,0.0,0.01
1585289621044557139,8354,1585289621043898276,foot_imu_link,-0.195978030562,-0.156682223082,-0.640292108059,0.72599542141,0.0,0.0,0.0,0.0,0.0,0.0,0.0,0.0,0.0,-0.00152927730232,2.66011338681e-05,0.000874558463693,0.01,0.0,0.0,0.0,0.01,0.0,0.0,0.0,0.01,-4.61666917801,0.817926943302,-8.43136978149,0.01,0.0,0.0,0.0,0.01,0.0,0.0,0.0,0.01
1585289621069654306,8355,1585289621068962110,foot_imu_link,-0.195986121893,-0.156665161252,-0.640287518501,0.726000964642,0.0,0.0,0.0,0.0,0.0,0.0,0.0,0.0,0.0,-0.0010088859126,0.000553231220692,8.93860124052e-05,0.01,0.0,0.0,0.0,0.01,0.0,0.0,0.0,0.01,-4.60314655304,0.817786335945,-8.40047359467,0.01,0.0,0.0,0.0,0.01,0.0,0.0,0.0,0.01
1585289621094441240,8356,1585289621093727751,foot_imu_link,-0.195987030864,-0.156659603119,-0.640283644199,0.726005315781,0.0,0.0,0.0,0.0,0.0,0.0,0.0,0.0,0.0,-0.00129175465554,0.000562229310162,0.000139193143696,0.01,0.0,0.0,0.0,0.01,0.0,0.0,0.0,0.01,-4.60081958771,0.810112416744,-8.40418815613,0.01,0.0,0.0,0.0,0.01,0.0,0.0,0.0,0.01
1585289621120011481,8357,1585289621118776604,foot_imu_link,-0.19598479569,-0.156644821167,-0.640288949013,0.726004421711,0.0,0.0,0.0,0.0,0.0,0.0,0.0,0.0,0.0,-0.000222058035433,-2.05298420042e-05,0.000540611799806,0.01,0.0,0.0,0.0,0.01,0.0,0.0,0.0,0.01,-4.5916185379,0.810096502304,-8.42260932922,0.01,0.0,0.0,0.0,0.01,0.0,0.0,0.0,0.01
1585289621144265164,8358,1585289621143580390,foot_imu_link,-0.195998385549,-0.15663471818,-0.640296399593,0.725996375084,0.0,0.0,0.0,0.0,0.0,0.0,0.0,0.0,0.0,-0.00193687528372,-0.00309424288571,-7.76215456426e-05,0.01,0.0,0.0,0.0,0.01,0.0,0.0,0.0,0.01,-4.60956096649,0.808658540249,-8.39253520966,0.01,0.0,0.0,0.0,0.01,0.0,0.0,0.0,0.01
1585289621169561872,8359,1585289621168817713,foot_imu_link,-0.196028634906,-0.156648084521,-0.640296876431,0.725984871387,0.0,0.0,0.0,0.0,0.0,0.0,0.0,0.0,0.0,-0.000108652748168,-0.00149735063314,0.000428601168096,0.01,0.0,0.0,0.0,0.01,0.0,0.0,0.0,0.01,-4.61246967316,0.800011694431,-8.43054580688,0.01,0.0,0.0,0.0,0.01,0.0,0.0,0.0,0.01
1585289621194457184,8360,1585289621193702450,foot_imu_link,-0.196037337184,-0.15665653348,-0.640289485455,0.725987315178,0.0,0.0,0.0,0.0,0.0,0.0,0.0,0.0,0.0,-0.00162213668227,0.000528267002665,0.000770793762058,0.01,0.0,0.0,0.0,0.01,0.0,0.0,0.0,0.01,-4.61330270767,0.813476920128,-8.42254638672,0.01,0.0,0.0,0.0,0.01,0.0,0.0,0.0,0.01
1585289621219496508,8361,1585289621218595766,foot_imu_link,-0.196034327149,-0.156651869416,-0.640289545059,0.725989043713,0.0,0.0,0.0,0.0,0.0,0.0,0.0,0.0,0.0,-0.000121980905533,-0.000156021327712,0.000693473499268,0.01,0.0,0.0,0.0,0.01,0.0,0.0,0.0,0.01,-4.60990524292,0.819819748402,-8.39983272552,0.01,0.0,0.0,0.0,0.01,0.0,0.0,0.0,0.01
1585289621244490668,8362,1585289621243836449,foot_imu_link,-0.196042120457,-0.15664345026,-0.640296757221,0.725982367992,0.0,0.0,0.0,0.0,0.0,0.0,0.0,0.0,0.0,-0.000583688728511,-0.000968344684225,-0.000546550843865,0.01,0.0,0.0,0.0,0.01,0.0,0.0,0.0,0.01,-4.63897323608,0.778239905834,-8.44297981262,0.01,0.0,0.0,0.0,0.01,0.0,0.0,0.0,0.01
1585289621269485282,8363,1585289621268750929,foot_imu_link,-0.19606512785,-0.156655550003,-0.640308916569,0.725962817669,0.0,0.0,0.0,0.0,0.0,0.0,0.0,0.0,0.0,-0.00163707137108,-0.00140635180287,0.000203496776521,0.01,0.0,0.0,0.0,0.01,0.0,0.0,0.0,0.01,-4.62782859802,0.820013523102,-8.42058563232,0.01,0.0,0.0,0.0,0.01,0.0,0.0,0.0,0.01
1585289621294122737,8364,1585289621293535287,foot_imu_link,-0.196079298854,-0.156655490398,-0.640315830708,0.725952863693,0.0,0.0,0.0,0.0,0.0,0.0,0.0,0.0,0.0,-0.000357479788363,-2.78303632513e-05,-0.00068645644933,0.01,0.0,0.0,0.0,0.01,0.0,0.0,0.0,0.01,-4.61497116089,0.803309679031,-8.42000579834,0.01,0.0,0.0,0.0,0.01,0.0,0.0,0.0,0.01
1585289621319263671,8365,1585289621318507157,foot_imu_link,-0.196072682738,-0.156643912196,-0.64031291008,0.725959718227,0.0,0.0,0.0,0.0,0.0,0.0,0.0,0.0,0.0,-0.00093490909785,0.00104041211307,0.000661763362586,0.01,0.0,0.0,0.0,0.01,0.0,0.0,0.0,0.01,-4.60902023315,0.800427436829,-8.42879676819,0.01,0.0,0.0,0.0,0.01,0.0,0.0,0.0,0.01
1585289621344001462,8366,1585289621343374938,foot_imu_link,-0.19608104229,-0.156625255942,-0.64031368494,0.725960850716,0.0,0.0,0.0,0.0,0.0,0.0,0.0,0.0,0.0,-0.00207139365375,-4.09735366702e-05,0.000853993464261,0.01,0.0,0.0,0.0,0.01,0.0,0.0,0.0,0.01,-4.60504627228,0.792698383331,-8.40177249908,0.01,0.0,0.0,0.0,0.01,0.0,0.0,0.0,0.01
1585289621368914998,8367,1585289621368290885,foot_imu_link,-0.196090951562,-0.15662278235,-0.640320658684,0.72595256567,0.0,0.0,0.0,0.0,0.0,0.0,0.0,0.0,0.0,-0.000800141133368,-0.000468472309876,0.000857209321111,0.01,0.0,0.0,0.0,0.01,0.0,0.0,0.0,0.01,-4.60923957825,0.821788668633,-8.43986320496,0.01,0.0,0.0,0.0,0.01,0.0,0.0,0.0,0.01
1585289621394478842,8368,1585289621393420253,foot_imu_link,-0.196073517203,-0.15660738945,-0.640329897404,0.725952386856,0.0,0.0,0.0,0.0,0.0,0.0,0.0,0.0,0.0,0.00185210350901,0.00109318736941,0.000409329775721,0.01,0.0,0.0,0.0,0.01,0.0,0.0,0.0,0.01,-4.6249833107,0.808572351933,-8.43120193481,0.01,0.0,0.0,0.0,0.01,0.0,0.0,0.0,0.01
1585289621418894724,8369,1585289621418282316,foot_imu_link,-0.196061432362,-0.156582608819,-0.640343487263,0.725949108601,0.0,0.0,0.0,0.0,0.0,0.0,0.0,0.0,0.0,-0.000478967092931,0.00065264350269,0.000827922485769,0.01,0.0,0.0,0.0,0.01,0.0,0.0,0.0,0.01,-4.60748767853,0.796172320843,-8.45396232605,0.01,0.0,0.0,0.0,0.01,0.0,0.0,0.0,0.01
1585289621443922570,8370,1585289621443163271,foot_imu_link,-0.196047082543,-0.156571820378,-0.640323340893,0.725973069668,0.0,0.0,0.0,0.0,0.0,0.0,0.0,0.0,0.0,-0.000914946198463,0.00143570057116,0.00242539215833,0.01,0.0,0.0,0.0,0.01,0.0,0.0,0.0,0.01,-4.61490821838,0.811425566673,-8.41304016113,0.01,0.0,0.0,0.0,0.01,0.0,0.0,0.0,0.01
1585289621468919848,8371,1585289621468324523,foot_imu_link,-0.196020573378,-0.156545087695,-0.640314638615,0.72599363327,0.0,0.0,0.0,0.0,0.0,0.0,0.0,0.0,0.0,9.7238458693e-05,0.00320219062269,0.000904174987227,0.01,0.0,0.0,0.0,0.01,0.0,0.0,0.0,0.01,-4.58489465714,0.836639583111,-8.44658660889,0.01,0.0,0.0,0.0,0.01,0.0,0.0,0.0,0.01
1585289621494088176,8372,1585289621493388217,foot_imu_link,-0.195999354124,-0.156528636813,-0.64031535387,0.726002335548,0.0,0.0,0.0,0.0,0.0,0.0,0.0,0.0,0.0,0.000582421198487,0.00155319308396,-0.000954184215516,0.01,0.0,0.0,0.0,0.01,0.0,0.0,0.0,0.01,-4.60762023926,0.811595022678,-8.42280387878,0.01,0.0,0.0,0.0,0.01,0.0,0.0,0.0,0.01
1585289621519079967,8373,1585289621518287976,foot_imu_link,-0.195988640189,-0.156543195248,-0.640321791172,0.725996375084,0.0,0.0,0.0,0.0,0.0,0.0,0.0,0.0,0.0,-0.00077060982585,-0.000749829574488,0.000203825999051,0.01,0.0,0.0,0.0,0.01,0.0,0.0,0.0,0.01,-4.61768817902,0.799214959145,-8.4561252594,0.01,0.0,0.0,0.0,0.01,0.0,0.0,0.0,0.01
1585289621544155194,8374,1585289621543189401,foot_imu_link,-0.195999115705,-0.156538501382,-0.640320181847,0.725996017456,0.0,0.0,0.0,0.0,0.0,0.0,0.0,0.0,0.0,-0.00247430987656,-0.00247443583794,-0.000360837206244,0.01,0.0,0.0,0.0,0.01,0.0,0.0,0.0,0.01,-4.62109279633,0.82057595253,-8.41383457184,0.01,0.0,0.0,0.0,0.01,0.0,0.0,0.0,0.01
1585289621568390767,8375,1585289621568007254,foot_imu_link,-0.196026831865,-0.156552091241,-0.640308976173,0.72599542141,0.0,0.0,0.0,0.0,0.0,0.0,0.0,0.0,0.0,-0.0015255222097,-0.000693864771165,-0.000473644584417,0.01,0.0,0.0,0.0,0.01,0.0,0.0,0.0,0.01,-4.59450149536,0.823639392853,-8.43708992004,0.01,0.0,0.0,0.0,0.01,0.0,0.0,0.0,0.01
1585289621594234307,8376,1585289621593942942,foot_imu_link,-0.196026518941,-0.15655092895,-0.640322506428,0.725983858109,0.0,0.0,0.0,0.0,0.0,0.0,0.0,0.0,0.0,-0.000740522518754,0.00123656226788,-7.41514377296e-05,0.01,0.0,0.0,0.0,0.01,0.0,0.0,0.0,0.01,-4.61354541779,0.799225568771,-8.43106269836,0.01,0.0,0.0,0.0,0.01,0.0,0.0,0.0,0.01
1585289621619047775,8377,1585289621618149362,foot_imu_link,-0.196020677686,-0.156535252929,-0.640330791473,0.725981533527,0.0,0.0,0.0,0.0,0.0,0.0,0.0,0.0,0.0,-0.000545498915017,0.00018059683498,0.000250972341746,0.01,0.0,0.0,0.0,0.01,0.0,0.0,0.0,0.01,-4.61243534088,0.808853328228,-8.42249488831,0.01,0.0,0.0,0.0,0.01,0.0,0.0,0.0,0.01
1585289621645251654,8378,1585289621644322881,foot_imu_link,-0.196028977633,-0.156534284353,-0.640335142612,0.725975573063,0.0,0.0,0.0,0.0,0.0,0.0,0.0,0.0,0.0,-0.00235338043422,7.87867465988e-05,0.000702444463968,0.01,0.0,0.0,0.0,0.01,0.0,0.0,0.0,0.01,-4.61632299423,0.788481473923,-8.42992782593,0.01,0.0,0.0,0.0,0.01,0.0,0.0,0.0,0.01
1585289621668796727,8379,1585289621668088665,foot_imu_link,-0.196048304439,-0.156531199813,-0.640317797661,0.725986361504,0.0,0.0,0.0,0.0,0.0,0.0,0.0,0.0,0.0,-0.00123505201191,-0.0010783309117,-8.64211469889e-05,0.01,0.0,0.0,0.0,0.01,0.0,0.0,0.0,0.01,-4.61295795441,0.806353211403,-8.41717243195,0.01,0.0,0.0,0.0,0.01,0.0,0.0,0.0,0.01
1585289621694734376,8380,1585289621694051339,foot_imu_link,-0.196051165462,-0.156526088715,-0.640307128429,0.725996077061,0.0,0.0,0.0,0.0,0.0,0.0,0.0,0.0,0.0,-0.000478504225612,0.000348885194398,0.00102599384263,0.01,0.0,0.0,0.0,0.01,0.0,0.0,0.0,0.01,-4.61031150818,0.794787406921,-8.41424655914,0.01,0.0,0.0,0.0,0.01,0.0,0.0,0.0,0.01
1585289621719806443,8381,1585289621719203172,foot_imu_link,-0.196037396789,-0.15650986135,-0.640310823917,0.726000010967,0.0,0.0,0.0,0.0,0.0,0.0,0.0,0.0,0.0,0.000315809622407,0.00172865903005,-0.000452464446425,0.01,0.0,0.0,0.0,0.01,0.0,0.0,0.0,0.01,-4.58357620239,0.815983951092,-8.4479598999,0.01,0.0,0.0,0.0,0.01,0.0,0.0,0.0,0.01
1585289621744483871,8382,1585289621743935471,foot_imu_link,-0.196028366685,-0.156506568193,-0.640322566032,0.72599285841,0.0,0.0,0.0,0.0,0.0,0.0,0.0,0.0,0.0,-0.000424707308412,-0.00143760046922,0.000124138314277,0.01,0.0,0.0,0.0,0.01,0.0,0.0,0.0,0.01,-4.60937261581,0.823156416416,-8.43142604828,0.01,0.0,0.0,0.0,0.01,0.0,0.0,0.0,0.01
1585289621770000248,8383,1585289621769181537,foot_imu_link,-0.19604575634,-0.1565105021,-0.640315711498,0.725993335247,0.0,0.0,0.0,0.0,0.0,0.0,0.0,0.0,0.0,-0.000928856432438,-0.00176942592952,-9.09427180886e-05,0.01,0.0,0.0,0.0,0.01,0.0,0.0,0.0,0.01,-4.62014579773,0.80551636219,-8.46708297729,0.01,0.0,0.0,0.0,0.01,0.0,0.0,0.0,0.01
1585289621794826592,8384,1585289621794043260,foot_imu_link,-0.19605435431,-0.156499296427,-0.640319526196,0.725990116596,0.0,0.0,0.0,0.0,0.0,0.0,0.0,0.0,0.0,-0.00185548700392,-0.000339338497724,-0.00063322391361,0.01,0.0,0.0,0.0,0.01,0.0,0.0,0.0,0.01,-4.61133623123,0.810950636864,-8.41992092133,0.01,0.0,0.0,0.0,0.01,0.0,0.0,0.0,0.01
1585289621819637835,8385,1585289621818954929,foot_imu_link,-0.196061044931,-0.156499415636,-0.640330135822,0.725978851318,0.0,0.0,0.0,0.0,0.0,0.0,0.0,0.0,0.0,-0.000772327184677,-0.000989600666799,0.000505618751049,0.01,0.0,0.0,0.0,0.01,0.0,0.0,0.0,0.01,-4.59854316711,0.790308475494,-8.42170810699,0.01,0.0,0.0,0.0,0.01,0.0,0.0,0.0,0.01
1585289621844729825,8386,1585289621844012006,foot_imu_link,-0.196090638638,-0.156506851315,-0.640329658985,0.725969672203,0.0,0.0,0.0,0.0,0.0,0.0,0.0,0.0,0.0,-0.00173037219793,-0.00306178443134,-0.000191100873053,0.01,0.0,0.0,0.0,0.01,0.0,0.0,0.0,0.01,-4.6009349823,0.819884598255,-8.42172431946,0.01,0.0,0.0,0.0,0.01,0.0,0.0,0.0,0.01
1585289621869599053,8387,1585289621868853512,foot_imu_link,-0.196121290326,-0.156525835395,-0.640324473381,0.725961863995,0.0,0.0,0.0,0.0,0.0,0.0,0.0,0.0,0.0,-0.000532422214746,-0.00218290230259,8.25384631753e-05,0.01,0.0,0.0,0.0,0.01,0.0,0.0,0.0,0.01,-4.63091945648,0.794174790382,-8.42375183105,0.01,0.0,0.0,0.0,0.01,0.0,0.0,0.0,0.01
1585289621894506771,8388,1585289621893752781,foot_imu_link,-0.19615060091,-0.156565666199,-0.640332937241,0.725937962532,0.0,0.0,0.0,0.0,0.0,0.0,0.0,0.0,0.0,-0.000477019697428,-0.0045775519684,-0.00193287851289,0.01,0.0,0.0,0.0,0.01,0.0,0.0,0.0,0.01,-4.64199113846,0.798112869263,-8.41377925873,0.01,0.0,0.0,0.0,0.01,0.0,0.0,0.0,0.01
1585289621919811336,8389,1585289621918804140,foot_imu_link,-0.196177020669,-0.156603261828,-0.640345871449,0.725911259651,0.0,0.0,0.0,0.0,0.0,0.0,0.0,0.0,0.0,-0.00113877281547,-0.00429861061275,-0.00122902356088,0.01,0.0,0.0,0.0,0.01,0.0,0.0,0.0,0.01,-4.62301635742,0.801138997078,-8.45026779175,0.01,0.0,0.0,0.0,0.01,0.0,0.0,0.0,0.01
1585289621944477567,8390,1585289621943811419,foot_imu_link,-0.196194246411,-0.156631678343,-0.6403683424,0.725880682468,0.0,0.0,0.0,0.0,0.0,0.0,0.0,0.0,0.0,-0.000292416661978,-0.00344491237774,-0.00152036175132,0.01,0.0,0.0,0.0,0.01,0.0,0.0,0.0,0.01,-4.61440753937,0.801246166229,-8.44258880615,0.01,0.0,0.0,0.0,0.01,0.0,0.0,0.0,0.01
1585289621969484495,8391,1585289621968746802,foot_imu_link,-0.196218490601,-0.156660273671,-0.640371620655,0.725865066051,0.0,0.0,0.0,0.0,0.0,0.0,0.0,0.0,0.0,0.000955083407462,-0.00270284200087,-0.00123424408957,0.01,0.0,0.0,0.0,0.01,0.0,0.0,0.0,0.01,-4.6093287468,0.805550456047,-8.41760730743,0.01,0.0,0.0,0.0,0.01,0.0,0.0,0.0,0.01
1585289621994448716,8392,1585289621993775762,foot_imu_link,-0.196208164096,-0.156668111682,-0.640379011631,0.725859582424,0.0,0.0,0.0,0.0,0.0,0.0,0.0,0.0,0.0,0.000741233117878,0.000267536612228,-0.00111407134682,0.01,0.0,0.0,0.0,0.01,0.0,0.0,0.0,0.01,-4.62294721603,0.808253288269,-8.40603542328,0.01,0.0,0.0,0.0,0.01,0.0,0.0,0.0,0.01
1585289622019577500,8393,1585289622018869371,foot_imu_link,-0.196200072765,-0.156691923738,-0.640385150909,0.725851356983,0.0,0.0,0.0,0.0,0.0,0.0,0.0,0.0,0.0,0.00127641391009,-0.000781974638812,-0.00214188033715,0.01,0.0,0.0,0.0,0.01,0.0,0.0,0.0,0.01,-4.59287261963,0.796380102634,-8.41980552673,0.01,0.0,0.0,0.0,0.01,0.0,0.0,0.0,0.01
1585289622044491686,8394,1585289622043844691,foot_imu_link,-0.196168497205,-0.156706064939,-0.640403568745,0.725840568542,0.0,0.0,0.0,0.0,0.0,0.0,0.0,0.0,0.0,0.00100958626717,0.000191641505808,-0.00139785697684,0.01,0.0,0.0,0.0,0.01,0.0,0.0,0.0,0.01,-4.6165804863,0.746816039085,-8.40816116333,0.01,0.0,0.0,0.0,0.01,0.0,0.0,0.0,0.01
1585289622069307578,8395,1585289622068612237,foot_imu_link,-0.196166172624,-0.15670864284,-0.640415430069,0.725830078125,0.0,0.0,0.0,0.0,0.0,0.0,0.0,0.0,0.0,0.00056251231581,-0.000964765786193,-0.000282956752926,0.01,0.0,0.0,0.0,0.01,0.0,0.0,0.0,0.01,-4.61748409271,0.815539777279,-8.4366645813,0.01,0.0,0.0,0.0,0.01,0.0,0.0,0.0,0.01
1585289622094154106,8396,1585289622093521880,foot_imu_link,-0.196177423,-0.156725883484,-0.640420198441,0.72581911087,0.0,0.0,0.0,0.0,0.0,0.0,0.0,0.0,0.0,0.000749030150473,-0.000714138383046,-0.000420933123678,0.01,0.0,0.0,0.0,0.01,0.0,0.0,0.0,0.01,-4.61090564728,0.810706913471,-8.41674137115,0.01,0.0,0.0,0.0,0.01,0.0,0.0,0.0,0.01
1585289622119643370,8397,1585289622118716814,foot_imu_link,-0.196173906326,-0.156734794378,-0.64041531086,0.725822508335,0.0,0.0,0.0,0.0,0.0,0.0,0.0,0.0,0.0,-0.000221636146307,0.000538212363608,-6.50156289339e-05,0.01,0.0,0.0,0.0,0.01,0.0,0.0,0.0,0.01,-4.59160375595,0.809414446354,-8.40599250793,0.01,0.0,0.0,0.0,0.01,0.0,0.0,0.0,0.01
1585289622144220699,8398,1585289622143476881,foot_imu_link,-0.196156263351,-0.156725600362,-0.640415787697,0.725828766823,0.0,0.0,0.0,0.0,0.0,0.0,0.0,0.0,0.0,0.000960450619459,0.00145687826443,-0.000292584765702,0.01,0.0,0.0,0.0,0.01,0.0,0.0,0.0,0.01,-4.61913299561,0.800440609455,-8.42063522339,0.01,0.0,0.0,0.0,0.01,0.0,0.0,0.0,0.01
1585289622169290465,8399,1585289622168444170,foot_imu_link,-0.196138441563,-0.156717196107,-0.64041775465,0.725833654404,0.0,0.0,0.0,0.0,0.0,0.0,0.0,0.0,0.0,0.000835402868688,0.000411500455812,-0.00112828984857,0.01,0.0,0.0,0.0,0.01,0.0,0.0,0.0,0.01,-4.61396026611,0.798091351986,-8.4043674469,0.01,0.0,0.0,0.0,0.01,0.0,0.0,0.0,0.01
1585289622194355416,8400,1585289622193665768,foot_imu_link,-0.196112409234,-0.156712919474,-0.640410065651,0.72584849596,0.0,0.0,0.0,0.0,0.0,0.0,0.0,0.0,0.0,0.00147643871605,0.00252355542034,0.000423023011535,0.01,0.0,0.0,0.0,0.01,0.0,0.0,0.0,0.01,-4.62477350235,0.781083106995,-8.42004203796,0.01,0.0,0.0,0.0,0.01,0.0,0.0,0.0,0.01
1585289622219698661,8401,1585289622218914149,foot_imu_link,-0.196092635393,-0.156706854701,-0.640407204628,0.725857675076,0.0,0.0,0.0,0.0,0.0,0.0,0.0,0.0,0.0,0.00154779106379,0.00217663822696,0.0010392088443,0.01,0.0,0.0,0.0,0.01,0.0,0.0,0.0,0.01,-4.59666824341,0.811107575893,-8.40228462219,0.01,0.0,0.0,0.0,0.01,0.0,0.0,0.0,0.01
1585289622244363773,8402,1585289622243545653,foot_imu_link,-0.196060478687,-0.156696587801,-0.640418946743,0.725858151913,0.0,0.0,0.0,0.0,0.0,0.0,0.0,0.0,0.0,0.00120653770864,0.00442068837583,-0.000155122950673,0.01,0.0,0.0,0.0,0.01,0.0,0.0,0.0,0.01,-4.61363554001,0.804941892624,-8.41213417053,0.01,0.0,0.0,0.0,0.01,0.0,0.0,0.0,0.01
1585289622269281198,8403,1585289622268544982,foot_imu_link,-0.196036815643,-0.156683474779,-0.640431046486,0.725856781006,0.0,0.0,0.0,0.0,0.0,0.0,0.0,0.0,0.0,0.000678394921124,0.000614062184468,-0.000272770412266,0.01,0.0,0.0,0.0,0.01,0.0,0.0,0.0,0.01,-4.60648536682,0.793526351452,-8.44001960754,0.01,0.0,0.0,0.0,0.01,0.0,0.0,0.0,0.01
1585289622294336468,8404,1585289622293653780,foot_imu_link,-0.196031048894,-0.15668451786,-0.640418946743,0.725868701935,0.0,0.0,0.0,0.0,0.0,0.0,0.0,0.0,0.0,-0.000438190065324,-0.00116661936045,0.00123730767518,0.01,0.0,0.0,0.0,0.01,0.0,0.0,0.0,0.01,-4.61549139023,0.801044583321,-8.40503501892,0.01,0.0,0.0,0.0,0.01,0.0,0.0,0.0,0.01
1585289622319222806,8405,1585289622318545632,foot_imu_link,-0.196030393243,-0.156686395407,-0.640419661999,0.72586786747,0.0,0.0,0.0,0.0,0.0,0.0,0.0,0.0,0.0,0.000397576019168,-6.70821173117e-05,0.00116235343739,0.01,0.0,0.0,0.0,0.01,0.0,0.0,0.0,0.01,-4.59052181244,0.784926533699,-8.39627933502,0.01,0.0,0.0,0.0,0.01,0.0,0.0,0.0,0.01
1585289622343748287,8406,1585289622343175346,foot_imu_link,-0.196025073528,-0.156686678529,-0.640414655209,0.725873708725,0.0,0.0,0.0,0.0,0.0,0.0,0.0,0.0,0.0,0.00130946002901,0.00157604378182,0.000374922994524,0.01,0.0,0.0,0.0,0.01,0.0,0.0,0.0,0.01,-4.62098455429,0.812668800354,-8.39795684814,0.01,0.0,0.0,0.0,0.01,0.0,0.0,0.0,0.01
1585289622369332734,8407,1585289622368332542,foot_imu_link,-0.19599494338,-0.156678825617,-0.640413820744,0.725884199142,0.0,0.0,0.0,0.0,0.0,0.0,0.0,0.0,0.0,0.00108499173075,0.00159034004901,7.35609792173e-05,0.01,0.0,0.0,0.0,0.01,0.0,0.0,0.0,0.01,-4.59867572784,0.803945302963,-8.41466140747,0.01,0.0,0.0,0.0,0.01,0.0,0.0,0.0,0.01
1585289622394378843,8408,1585289622393408269,foot_imu_link,-0.195970714092,-0.156672894955,-0.640417575836,0.725888729095,0.0,0.0,0.0,0.0,0.0,0.0,0.0,0.0,0.0,0.0010699396953,0.00123166607227,0.000260716769844,0.01,0.0,0.0,0.0,0.01,0.0,0.0,0.0,0.01,-4.59102153778,0.791465222836,-8.41424369812,0.01,0.0,0.0,0.0,0.01,0.0,0.0,0.0,0.01
1585289622419222857,8409,1585289622418289913,foot_imu_link,-0.195947229862,-0.156665876508,-0.640427470207,0.72588789463,0.0,0.0,0.0,0.0,0.0,0.0,0.0,0.0,0.0,0.00060160830617,0.00113073294051,0.000734250061214,0.01,0.0,0.0,0.0,0.01,0.0,0.0,0.0,0.01,-4.58357620239,0.821586966515,-8.39801692963,0.01,0.0,0.0,0.0,0.01,0.0,0.0,0.0,0.01
