%time,field.header.seq,field.header.stamp,field.header.frame_id,field.orientation.x,field.orientation.y,field.orientation.z,field.orientation.w,field.orientation_covariance0,field.orientation_covariance1,field.orientation_covariance2,field.orientation_covariance3,field.orientation_covariance4,field.orientation_covariance5,field.orientation_covariance6,field.orientation_covariance7,field.orientation_covariance8,field.angular_velocity.x,field.angular_velocity.y,field.angular_velocity.z,field.angular_velocity_covariance0,field.angular_velocity_covariance1,field.angular_velocity_covariance2,field.angular_velocity_covariance3,field.angular_velocity_covariance4,field.angular_velocity_covariance5,field.angular_velocity_covariance6,field.angular_velocity_covariance7,field.angular_velocity_covariance8,field.linear_acceleration.x,field.linear_acceleration.y,field.linear_acceleration.z,field.linear_acceleration_covariance0,field.linear_acceleration_covariance1,field.linear_acceleration_covariance2,field.linear_acceleration_covariance3,field.linear_acceleration_covariance4,field.linear_acceleration_covariance5,field.linear_acceleration_covariance6,field.linear_acceleration_covariance7,field.linear_acceleration_covariance8
1584954936793586490,2262,1584954936793327157,imu_link,0.0362219326198,-0.230214953423,0.606401562691,0.760240912437,0.0,0.0,0.0,0.0,0.0,0.0,0.0,0.0,0.0,0.0193392131478,0.0154360570014,-0.017440751195,0.01,0.0,0.0,0.0,0.01,0.0,0.0,0.0,0.01,-3.7327876091,2.18002963066,-8.48623180389,0.01,0.0,0.0,0.0,0.01,0.0,0.0,0.0,0.01
1584954936818587494,2263,1584954936818316424,imu_link,0.0364065021276,-0.229941904545,0.60627835989,0.760412991047,0.0,0.0,0.0,0.0,0.0,0.0,0.0,0.0,0.0,0.0226752292365,0.00645419117063,-0.0250223614275,0.01,0.0,0.0,0.0,0.01,0.0,0.0,0.0,0.01,-3.74797868729,2.15907979012,-8.51808834076,0.01,0.0,0.0,0.0,0.01,0.0,0.0,0.0,0.01
1584954936843538435,2264,1584954936843285941,imu_link,0.0366656668484,-0.229687035084,0.606139838696,0.760587990284,0.0,0.0,0.0,0.0,0.0,0.0,0.0,0.0,0.0,0.0259678773582,0.00500386254862,-0.0225025825202,0.01,0.0,0.0,0.0,0.01,0.0,0.0,0.0,0.01,-3.75734615326,2.1011967659,-8.54371070862,0.01,0.0,0.0,0.0,0.01,0.0,0.0,0.0,0.01
1584954936868651234,2265,1584954936868251045,imu_link,0.0369216166437,-0.229454323649,0.606019794941,0.760741472244,0.0,0.0,0.0,0.0,0.0,0.0,0.0,0.0,0.0,0.0235192626715,0.0029582742136,-0.0201748125255,0.01,0.0,0.0,0.0,0.01,0.0,0.0,0.0,0.01,-3.79279398918,2.10885310173,-8.55772781372,0.01,0.0,0.0,0.0,0.01,0.0,0.0,0.0,0.01
1584954936893754677,2266,1584954936893429431,imu_link,0.037174616009,-0.229266956449,0.605924487114,0.760861575603,0.0,0.0,0.0,0.0,0.0,0.0,0.0,0.0,0.0,0.0212457031012,0.0013191474136,-0.0154028944671,0.01,0.0,0.0,0.0,0.01,0.0,0.0,0.0,0.01,-3.79817914963,2.06865119934,-8.5338306427,0.01,0.0,0.0,0.0,0.01,0.0,0.0,0.0,0.01
1584954936919171088,2267,1584954936918595695,imu_link,0.0373589284718,-0.229102045298,0.605879247189,0.760938227177,0.0,0.0,0.0,0.0,0.0,0.0,0.0,0.0,0.0,0.0181561410427,0.00185554521158,-0.009017909877,0.01,0.0,0.0,0.0,0.01,0.0,0.0,0.0,0.01,-3.74546909332,2.07675647736,-8.50285625458,0.01,0.0,0.0,0.0,0.01,0.0,0.0,0.0,0.01
1584954936944156043,2268,1584954936943548218,imu_link,0.0375400222838,-0.228980720043,0.605847775936,0.760990858078,0.0,0.0,0.0,0.0,0.0,0.0,0.0,0.0,0.0,0.0154927801341,-0.00554178049788,-0.00846351496875,0.01,0.0,0.0,0.0,0.01,0.0,0.0,0.0,0.01,-3.72892212868,2.09441661835,-8.54065895081,0.01,0.0,0.0,0.0,0.01,0.0,0.0,0.0,0.01
1584954936969073122,2269,1584954936968539628,imu_link,0.0376267768443,-0.228928133845,0.605785012245,0.761052429676,0.0,0.0,0.0,0.0,0.0,0.0,0.0,0.0,0.0,-0.00130664370954,0.00519319111481,-0.00638084765524,0.01,0.0,0.0,0.0,0.01,0.0,0.0,0.0,0.01,-3.76363992691,2.04502058029,-8.5283870697,0.01,0.0,0.0,0.0,0.01,0.0,0.0,0.0,0.01
1584954936994423992,2270,1584954936993613057,imu_link,0.0376275330782,-0.228937983513,0.605733275414,0.761090576649,0.0,0.0,0.0,0.0,0.0,0.0,0.0,0.0,0.0,-0.00395488087088,-0.00382003095001,-0.00453826226294,0.01,0.0,0.0,0.0,0.01,0.0,0.0,0.0,0.01,-3.75767731667,2.09007811546,-8.56921482086,0.01,0.0,0.0,0.0,0.01,0.0,0.0,0.0,0.01
1584954937019899282,2271,1584954937018777810,imu_link,0.0375201068819,-0.22897259891,0.60567253828,0.761133730412,0.0,0.0,0.0,0.0,0.0,0.0,0.0,0.0,0.0,-0.0116337928921,0.00750416470692,-0.0042762439698,0.01,0.0,0.0,0.0,0.01,0.0,0.0,0.0,0.01,-3.7681889534,2.09759068489,-8.53276824951,0.01,0.0,0.0,0.0,0.01,0.0,0.0,0.0,0.01
1584954937043587784,2272,1584954937043225765,imu_link,0.0373743325472,-0.228973373771,0.60561299324,0.761188089848,0.0,0.0,0.0,0.0,0.0,0.0,0.0,0.0,0.0,-0.00737942382693,0.00730421580374,-0.00634738616645,0.01,0.0,0.0,0.0,0.01,0.0,0.0,0.0,0.01,-3.74765849113,2.139970541,-8.54039669037,0.01,0.0,0.0,0.0,0.01,0.0,0.0,0.0,0.01
1584954937068393501,2273,1584954937068097489,imu_link,0.0371773205698,-0.228925898671,0.605547785759,0.761263906956,0.0,0.0,0.0,0.0,0.0,0.0,0.0,0.0,0.0,-0.0135925905779,0.0181450564414,-0.00228239130229,0.01,0.0,0.0,0.0,0.01,0.0,0.0,0.0,0.01,-3.77799677849,2.07508897781,-8.52498531342,0.01,0.0,0.0,0.0,0.01,0.0,0.0,0.0,0.01
1584954937093377970,2274,1584954937093071429,imu_link,0.0369446761906,-0.228886261582,0.605528473854,0.761302530766,0.0,0.0,0.0,0.0,0.0,0.0,0.0,0.0,0.0,-0.010606110096,0.0113646890968,0.000643827021122,0.01,0.0,0.0,0.0,0.01,0.0,0.0,0.0,0.01,-3.74274778366,2.10258054733,-8.53998470306,0.01,0.0,0.0,0.0,0.01,0.0,0.0,0.0,0.01
1584954937118516618,2275,1584954937118168701,imu_link,0.0368269756436,-0.22889995575,0.605534136295,0.761299550533,0.0,0.0,0.0,0.0,0.0,0.0,0.0,0.0,0.0,-0.009231954813,0.00395120447502,0.00345210079104,0.01,0.0,0.0,0.0,0.01,0.0,0.0,0.0,0.01,-3.75714731216,2.09291124344,-8.5083322525,0.01,0.0,0.0,0.0,0.01,0.0,0.0,0.0,0.01
1584954937143403262,2276,1584954937143071389,imu_link,0.0365309044719,-0.228894993663,0.605562627316,0.761292695999,0.0,0.0,0.0,0.0,0.0,0.0,0.0,0.0,0.0,-0.019372548908,0.0193272139877,0.00665345368907,0.01,0.0,0.0,0.0,0.01,0.0,0.0,0.0,0.01,-3.75542259216,2.1556096077,-8.55501461029,0.01,0.0,0.0,0.0,0.01,0.0,0.0,0.0,0.01
1584954937168457492,2277,1584954937168111743,imu_link,0.0361327268183,-0.228824406862,0.605587184429,0.761313319206,0.0,0.0,0.0,0.0,0.0,0.0,0.0,0.0,0.0,-0.0240322090685,0.0271062999964,0.00719153089449,0.01,0.0,0.0,0.0,0.01,0.0,0.0,0.0,0.01,-3.7462015152,2.12554454803,-8.52335357666,0.01,0.0,0.0,0.0,0.01,0.0,0.0,0.0,0.01
1584954937193907906,2278,1584954937193091271,imu_link,0.035575479269,-0.228751689196,0.605592131615,0.761357486248,0.0,0.0,0.0,0.0,0.0,0.0,0.0,0.0,0.0,-0.0356121920049,0.0320330820978,0.00832790974528,0.01,0.0,0.0,0.0,0.01,0.0,0.0,0.0,0.01,-3.73674893379,2.15733957291,-8.5301618576,0.01,0.0,0.0,0.0,0.01,0.0,0.0,0.0,0.01
1584954937218341979,2279,1584954937218048519,imu_link,0.0348934046924,-0.228732824326,0.605601549149,0.761387169361,0.0,0.0,0.0,0.0,0.0,0.0,0.0,0.0,0.0,-0.0460415184498,0.0349934063852,0.0142307924107,0.01,0.0,0.0,0.0,0.01,0.0,0.0,0.0,0.01,-3.75343394279,2.12312817574,-8.52637672424,0.01,0.0,0.0,0.0,0.01,0.0,0.0,0.0,0.01
1584954937243306498,2280,1584954937243025407,imu_link,0.0343437828124,-0.228745698929,0.605579912663,0.761425495148,0.0,0.0,0.0,0.0,0.0,0.0,0.0,0.0,0.0,-0.0311966240406,0.0257134884596,0.00296210963279,0.01,0.0,0.0,0.0,0.01,0.0,0.0,0.0,0.01,-3.72274684906,2.12860918045,-8.53159713745,0.01,0.0,0.0,0.0,0.01,0.0,0.0,0.0,0.01
1584954937268355544,2281,1584954937267983853,imu_link,0.0338785909116,-0.228768572211,0.60553830862,0.761472702026,0.0,0.0,0.0,0.0,0.0,0.0,0.0,0.0,0.0,-0.0295088533312,0.0244465768337,0.00201209122315,0.01,0.0,0.0,0.0,0.01,0.0,0.0,0.0,0.01,-3.70164299011,2.13403296471,-8.5293264389,0.01,0.0,0.0,0.0,0.01,0.0,0.0,0.0,0.01
1584954937293297932,2282,1584954937292995257,imu_link,0.0331881940365,-0.228795617819,0.605500996113,0.761524498463,0.0,0.0,0.0,0.0,0.0,0.0,0.0,0.0,0.0,-0.0500363893807,0.0309885982424,0.00947663001716,0.01,0.0,0.0,0.0,0.01,0.0,0.0,0.0,0.01,-3.72420883179,2.14640021324,-8.55207538605,0.01,0.0,0.0,0.0,0.01,0.0,0.0,0.0,0.01
1584954937318245821,2283,1584954937317945631,imu_link,0.0324499644339,-0.228910773993,0.605473637581,0.761543571949,0.0,0.0,0.0,0.0,0.0,0.0,0.0,0.0,0.0,-0.0540781095624,0.0290436856449,0.0125308036804,0.01,0.0,0.0,0.0,0.01,0.0,0.0,0.0,0.01,-3.70568227768,2.19377160072,-8.54914474487,0.01,0.0,0.0,0.0,0.01,0.0,0.0,0.0,0.01
1584954937343230547,2284,1584954937342952063,imu_link,0.0316462516785,-0.228998050094,0.60548967123,0.76153844595,0.0,0.0,0.0,0.0,0.0,0.0,0.0,0.0,0.0,-0.0539746358991,0.0385967716575,0.0170525629073,0.01,0.0,0.0,0.0,0.01,0.0,0.0,0.0,0.01,-3.72692584991,2.2055170536,-8.53349781036,0.01,0.0,0.0,0.0,0.01,0.0,0.0,0.0,0.01
1584954937368239684,2285,1584954937367888461,imu_link,0.0309628527611,-0.22909848392,0.605523586273,0.761509299278,0.0,0.0,0.0,0.0,0.0,0.0,0.0,0.0,0.0,-0.0401930958033,0.0218368396163,0.013849276118,0.01,0.0,0.0,0.0,0.01,0.0,0.0,0.0,0.01,-3.65039634705,2.21446228027,-8.51041793823,0.01,0.0,0.0,0.0,0.01,0.0,0.0,0.0,0.01
1584954937393208003,2286,1584954937392874376,imu_link,0.0307093188167,-0.229168742895,0.605564057827,0.761466324329,0.0,0.0,0.0,0.0,0.0,0.0,0.0,0.0,0.0,-0.00942164752632,0.0344516448677,0.00384745374322,0.01,0.0,0.0,0.0,0.01,0.0,0.0,0.0,0.01,-3.72806930542,2.21971940994,-8.53757190704,0.01,0.0,0.0,0.0,0.01,0.0,0.0,0.0,0.01
1584954937418159023,2287,1584954937417861290,imu_link,0.0304369851947,-0.228987678885,0.605597317219,0.761505186558,0.0,0.0,0.0,0.0,0.0,0.0,0.0,0.0,0.0,-0.0109031107277,0.0111028319225,0.0057282098569,0.01,0.0,0.0,0.0,0.01,0.0,0.0,0.0,0.01,-3.66555905342,2.22000646591,-8.51196575165,0.01,0.0,0.0,0.0,0.01,0.0,0.0,0.0,0.01
1584954937443233730,2288,1584954937442853598,imu_link,0.0303552895784,-0.229142233729,0.605632066727,0.76143437624,0.0,0.0,0.0,0.0,0.0,0.0,0.0,0.0,0.0,-0.016573894769,-0.00635459786281,0.00841964222491,0.01,0.0,0.0,0.0,0.01,0.0,0.0,0.0,0.01,-3.6981716156,2.19576215744,-8.53891658783,0.01,0.0,0.0,0.0,0.01,0.0,0.0,0.0,0.01
1584954937468127432,2289,1584954937467818417,imu_link,0.0301497671753,-0.229300200939,0.60569101572,0.761348068714,0.0,0.0,0.0,0.0,0.0,0.0,0.0,0.0,0.0,-0.0163010004908,-0.000433999171946,0.0098222931847,0.01,0.0,0.0,0.0,0.01,0.0,0.0,0.0,0.01,-3.66039133072,2.21631741524,-8.53314781189,0.01,0.0,0.0,0.0,0.01,0.0,0.0,0.0,0.01
1584954937493198423,2290,1584954937492819629,imu_link,0.0302023459226,-0.229383185506,0.605722904205,0.761295616627,0.0,0.0,0.0,0.0,0.0,0.0,0.0,0.0,0.0,0.00780249992386,-0.0179773811251,-0.00177896441892,0.01,0.0,0.0,0.0,0.01,0.0,0.0,0.0,0.01,-3.66690349579,2.2238137722,-8.52097892761,0.01,0.0,0.0,0.0,0.01,0.0,0.0,0.0,0.01
1584954937518052710,2291,1584954937517762251,imu_link,0.0304880198091,-0.229484528303,0.605748593807,0.761233270168,0.0,0.0,0.0,0.0,0.0,0.0,0.0,0.0,0.0,0.0100534567609,-0.0223714523017,-0.000153120141476,0.01,0.0,0.0,0.0,0.01,0.0,0.0,0.0,0.01,-3.71078467369,2.20833015442,-8.52998638153,0.01,0.0,0.0,0.0,0.01,0.0,0.0,0.0,0.01
1584954937543011841,2292,1584954937542747413,imu_link,0.0307045057416,-0.22962410748,0.605813145638,0.761131107807,0.0,0.0,0.0,0.0,0.0,0.0,0.0,0.0,0.0,0.00596066657454,-0.0190991293639,0.00520685967058,0.01,0.0,0.0,0.0,0.01,0.0,0.0,0.0,0.01,-3.70662927628,2.19891476631,-8.53490924835,0.01,0.0,0.0,0.0,0.01,0.0,0.0,0.0,0.01
1584954937568152848,2293,1584954937567800666,imu_link,0.0308636222035,-0.22970752418,0.605923116207,0.761011898518,0.0,0.0,0.0,0.0,0.0,0.0,0.0,0.0,0.0,0.0212205909193,-0.0270342323929,0.000964055769145,0.01,0.0,0.0,0.0,0.01,0.0,0.0,0.0,0.01,-3.68445587158,2.30555415154,-8.61013126373,0.01,0.0,0.0,0.0,0.01,0.0,0.0,0.0,0.01
1584954937593094132,2294,1584954937592716085,imu_link,0.0310353655368,-0.22972881794,0.606045365334,0.760901153088,0.0,0.0,0.0,0.0,0.0,0.0,0.0,0.0,0.0,0.0188888777047,-0.0135002629831,0.00221054628491,0.01,0.0,0.0,0.0,0.01,0.0,0.0,0.0,0.01,-3.65870285034,2.17028403282,-8.50963401794,0.01,0.0,0.0,0.0,0.01,0.0,0.0,0.0,0.01
1584954937618084863,2295,1584954937617739808,imu_link,0.0309748053551,-0.229680374265,0.606164395809,0.760823369026,0.0,0.0,0.0,0.0,0.0,0.0,0.0,0.0,0.0,-0.00758713670075,0.007705679629,0.0141072552651,0.01,0.0,0.0,0.0,0.01,0.0,0.0,0.0,0.01,-3.69940376282,2.15832734108,-8.50379753113,0.01,0.0,0.0,0.0,0.01,0.0,0.0,0.0,0.01
1584954937643082378,2296,1584954937642710113,imu_link,0.0308205317706,-0.229679793119,0.606270551682,0.760745227337,0.0,0.0,0.0,0.0,0.0,0.0,0.0,0.0,0.0,-0.0157929472625,0.0126789594069,0.0148534793407,0.01,0.0,0.0,0.0,0.01,0.0,0.0,0.0,0.01,-3.66809511185,2.17606544495,-8.57094287872,0.01,0.0,0.0,0.0,0.01,0.0,0.0,0.0,0.01
1584954937667834096,2297,1584954937667648539,imu_link,0.0305663179606,-0.229731589556,0.606366157532,0.760663688183,0.0,0.0,0.0,0.0,0.0,0.0,0.0,0.0,0.0,-0.014290895313,0.00545305665582,0.0119932517409,0.01,0.0,0.0,0.0,0.01,0.0,0.0,0.0,0.01,-3.67833328247,2.22533893585,-8.51892280579,0.01,0.0,0.0,0.0,0.01,0.0,0.0,0.0,0.01
1584954937692812265,2298,1584954937692612105,imu_link,0.030321650207,-0.229741320014,0.606441855431,0.760610103607,0.0,0.0,0.0,0.0,0.0,0.0,0.0,0.0,0.0,-0.0154531374574,0.0100332908332,0.012217332609,0.01,0.0,0.0,0.0,0.01,0.0,0.0,0.0,0.01,-3.65331983566,2.2122926712,-8.51938247681,0.01,0.0,0.0,0.0,0.01,0.0,0.0,0.0,0.01
1584954937717717485,2299,1584954937717528000,imu_link,0.0301434304565,-0.229812681675,0.60647803545,0.76056689024,0.0,0.0,0.0,0.0,0.0,0.0,0.0,0.0,0.0,-0.0123240305111,0.00059588777367,0.00734582031146,0.01,0.0,0.0,0.0,0.01,0.0,0.0,0.0,0.01,-3.66984677315,2.22947764397,-8.51180362701,0.01,0.0,0.0,0.0,0.01,0.0,0.0,0.0,0.01
1584954937742983567,2300,1584954937742628903,imu_link,0.0299887564033,-0.229874148965,0.606507241726,0.760531127453,0.0,0.0,0.0,0.0,0.0,0.0,0.0,0.0,0.0,-0.0126138962805,0.00490583758801,0.00577441323549,0.01,0.0,0.0,0.0,0.01,0.0,0.0,0.0,0.01,-3.6771042347,2.21551036835,-8.50458526611,0.01,0.0,0.0,0.0,0.01,0.0,0.0,0.0,0.01
1584954937768468266,2301,1584954937767911241,imu_link,0.0298567973077,-0.229924455285,0.606529295444,0.760503590107,0.0,0.0,0.0,0.0,0.0,0.0,0.0,0.0,0.0,-0.0102478414774,0.000127705352497,0.00434448430315,0.01,0.0,0.0,0.0,0.01,0.0,0.0,0.0,0.01,-3.67120456696,2.24717998505,-8.51899051666,0.01,0.0,0.0,0.0,0.01,0.0,0.0,0.0,0.01
1584954937793512722,2302,1584954937792857595,imu_link,0.029741069302,-0.229951173067,0.606535315514,0.760495185852,0.0,0.0,0.0,0.0,0.0,0.0,0.0,0.0,0.0,-0.00672921631485,0.00561599154025,0.00212235143408,0.01,0.0,0.0,0.0,0.01,0.0,0.0,0.0,0.01,-3.68182396889,2.25425577164,-8.50569725037,0.01,0.0,0.0,0.0,0.01,0.0,0.0,0.0,0.01
1584954937819256170,2303,1584954937818068847,imu_link,0.0296730026603,-0.229902565479,0.606538534164,0.760509967804,0.0,0.0,0.0,0.0,0.0,0.0,0.0,0.0,0.0,0.000656737014651,0.00331405014731,0.000373570714146,0.01,0.0,0.0,0.0,0.01,0.0,0.0,0.0,0.01,-3.66515922546,2.24068069458,-8.56277656555,0.01,0.0,0.0,0.0,0.01,0.0,0.0,0.0,0.01
1584954937843479357,2304,1584954937842899431,imu_link,0.0296729002148,-0.229877278209,0.606524169445,0.760529100895,0.0,0.0,0.0,0.0,0.0,0.0,0.0,0.0,0.0,0.00255670771003,-0.00134449847974,-0.00395293300971,0.01,0.0,0.0,0.0,0.01,0.0,0.0,0.0,0.01,-3.69858050346,2.24855184555,-8.54788017273,0.01,0.0,0.0,0.0,0.01,0.0,0.0,0.0,0.01
1584954937868668589,2305,1584954937867959925,imu_link,0.0297042578459,-0.229872152209,0.606501460075,0.760547399521,0.0,0.0,0.0,0.0,0.0,0.0,0.0,0.0,0.0,0.00196460448205,-0.0016914664302,-0.00285499775782,0.01,0.0,0.0,0.0,0.01,0.0,0.0,0.0,0.01,-3.6565322876,2.21451091766,-8.54136657715,0.01,0.0,0.0,0.0,0.01,0.0,0.0,0.0,0.01
1584954937893218416,2306,1584954937892696797,imu_link,0.029801286757,-0.229863837361,0.606476068497,0.760566413403,0.0,0.0,0.0,0.0,0.0,0.0,0.0,0.0,0.0,0.00659590400755,-0.00830484367907,-0.00590906618163,0.01,0.0,0.0,0.0,0.01,0.0,0.0,0.0,0.01,-3.6595788002,2.24631929398,-8.54232406616,0.01,0.0,0.0,0.0,0.01,0.0,0.0,0.0,0.01
1584954937917663093,2307,1584954937917448083,imu_link,0.0299847330898,-0.229888185859,0.606420695782,0.760596096516,0.0,0.0,0.0,0.0,0.0,0.0,0.0,0.0,0.0,0.00853415951133,-0.0137309683487,-0.0106989461929,0.01,0.0,0.0,0.0,0.01,0.0,0.0,0.0,0.01,-3.67176651955,2.23855924606,-8.53973293304,0.01,0.0,0.0,0.0,0.01,0.0,0.0,0.0,0.01
1584954937942693252,2308,1584954937942418116,imu_link,0.0301556922495,-0.229914739728,0.606364905834,0.760625779629,0.0,0.0,0.0,0.0,0.0,0.0,0.0,0.0,0.0,0.00799672119319,-0.00894405134022,-0.0072072185576,0.01,0.0,0.0,0.0,0.01,0.0,0.0,0.0,0.01,-3.7205016613,2.22179079056,-8.55171394348,0.01,0.0,0.0,0.0,0.01,0.0,0.0,0.0,0.01
1584954937968638761,2309,1584954937968396141,imu_link,0.0302900448442,-0.229897171259,0.606336593628,0.760648310184,0.0,0.0,0.0,0.0,0.0,0.0,0.0,0.0,0.0,0.00867284461856,-0.00498089939356,-0.00523086776957,0.01,0.0,0.0,0.0,0.01,0.0,0.0,0.0,0.01,-3.69430470467,2.23997831345,-8.5545129776,0.01,0.0,0.0,0.0,0.01,0.0,0.0,0.0,0.01
1584954937992628957,2310,1584954937992369596,imu_link,0.0304264184088,-0.229881614447,0.60630273819,0.760674536228,0.0,0.0,0.0,0.0,0.0,0.0,0.0,0.0,0.0,0.00770905800164,-0.0069686267525,-0.00455155689269,0.01,0.0,0.0,0.0,0.01,0.0,0.0,0.0,0.01,-3.70201468468,2.21600365639,-8.53272628784,0.01,0.0,0.0,0.0,0.01,0.0,0.0,0.0,0.01
1584954938017733474,2311,1584954938017385941,imu_link,0.0305238924921,-0.229877188802,0.606277167797,0.760692358017,0.0,0.0,0.0,0.0,0.0,0.0,0.0,0.0,0.0,0.00523533299565,-0.0026611534413,-0.00306003214791,0.01,0.0,0.0,0.0,0.01,0.0,0.0,0.0,0.01,-3.69190454483,2.2109413147,-8.55384349823,0.01,0.0,0.0,0.0,0.01,0.0,0.0,0.0,0.01
1584954938042833871,2312,1584954938042448654,imu_link,0.0305987913162,-0.229846358299,0.606256067753,0.760715484619,0.0,0.0,0.0,0.0,0.0,0.0,0.0,0.0,0.0,0.00588585343212,-0.00189603166655,-0.00372675387189,0.01,0.0,0.0,0.0,0.01,0.0,0.0,0.0,0.01,-3.70634841919,2.23170828819,-8.54892349243,0.01,0.0,0.0,0.0,0.01,0.0,0.0,0.0,0.01
1584954938068890160,2313,1584954938068432121,imu_link,0.0306642148644,-0.229831621051,0.606226623058,0.760740756989,0.0,0.0,0.0,0.0,0.0,0.0,0.0,0.0,0.0,0.00191610772163,-0.00361520121805,-0.00462854607031,0.01,0.0,0.0,0.0,0.01,0.0,0.0,0.0,0.01,-3.68981647491,2.18117809296,-8.53358459473,0.01,0.0,0.0,0.0,0.01,0.0,0.0,0.0,0.01
1584954938092726862,2314,1584954938092375775,imu_link,0.0307202525437,-0.229874759912,0.606199145317,0.760747373104,0.0,0.0,0.0,0.0,0.0,0.0,0.0,0.0,0.0,0.000957579351962,-0.00501403911039,-0.00192959606647,0.01,0.0,0.0,0.0,0.01,0.0,0.0,0.0,0.01,-3.71466612816,2.21952962875,-8.52407455444,0.01,0.0,0.0,0.0,0.01,0.0,0.0,0.0,0.01
1584954938118669543,2315,1584954938118352207,imu_link,0.0307535696775,-0.229899376631,0.606167912483,0.760763466358,0.0,0.0,0.0,0.0,0.0,0.0,0.0,0.0,0.0,0.000686208717525,-0.00420347973704,-0.0037019662559,0.01,0.0,0.0,0.0,0.01,0.0,0.0,0.0,0.01,-3.69698524475,2.20284748077,-8.4855222702,0.01,0.0,0.0,0.0,0.01,0.0,0.0,0.0,0.01
1584954938142647988,2316,1584954938142342207,imu_link,0.0308087281883,-0.229919672012,0.606138408184,0.760778546333,0.0,0.0,0.0,0.0,0.0,0.0,0.0,0.0,0.0,0.00247313082218,-0.00366233219393,-0.00325522338971,0.01,0.0,0.0,0.0,0.01,0.0,0.0,0.0,0.01,-3.69203662872,2.20375585556,-8.53263568878,0.01,0.0,0.0,0.0,0.01,0.0,0.0,0.0,0.01
1584954938168537422,2317,1584954938168254789,imu_link,0.0308535955846,-0.229927971959,0.606114625931,0.760793209076,0.0,0.0,0.0,0.0,0.0,0.0,0.0,0.0,0.0,0.00313071440905,-0.00377513840795,-0.00434954511002,0.01,0.0,0.0,0.0,0.01,0.0,0.0,0.0,0.01,-3.71306419373,2.23694610596,-8.5014591217,0.01,0.0,0.0,0.0,0.01,0.0,0.0,0.0,0.01
1584954938192422928,2318,1584954938192217815,imu_link,0.0308961234987,-0.229934558272,0.606088578701,0.760810256004,0.0,0.0,0.0,0.0,0.0,0.0,0.0,0.0,0.0,0.00302037689835,-0.0010431711562,-0.00357281370088,0.01,0.0,0.0,0.0,0.01,0.0,0.0,0.0,0.01,-3.71449375153,2.21774148941,-8.53441143036,0.01,0.0,0.0,0.0,0.01,0.0,0.0,0.0,0.01
1584954938218547668,2319,1584954938218224816,imu_link,0.0309139043093,-0.229925811291,0.606072902679,0.760824680328,0.0,0.0,0.0,0.0,0.0,0.0,0.0,0.0,0.0,0.00106824282557,-0.00193640415091,-0.00189527776092,0.01,0.0,0.0,0.0,0.01,0.0,0.0,0.0,0.01,-3.7160012722,2.20746183395,-8.53859710693,0.01,0.0,0.0,0.0,0.01,0.0,0.0,0.0,0.01
1584954938243454211,2320,1584954938243204052,imu_link,0.0309170428663,-0.22992387414,0.606075227261,0.760823309422,0.0,0.0,0.0,0.0,0.0,0.0,0.0,0.0,0.0,0.00231197010726,-0.000884335138835,-0.00175699125975,0.01,0.0,0.0,0.0,0.01,0.0,0.0,0.0,0.01,-3.70184326172,2.19687128067,-8.53919124603,0.01,0.0,0.0,0.0,0.01,0.0,0.0,0.0,0.01
1584954938268777876,2321,1584954938268333688,imu_link,0.0309597812593,-0.229892715812,0.60606855154,0.760836184025,0.0,0.0,0.0,0.0,0.0,0.0,0.0,0.0,0.0,0.0059799561277,-0.00195980630815,-0.00361125450581,0.01,0.0,0.0,0.0,0.01,0.0,0.0,0.0,0.01,-3.70207691193,2.25091791153,-8.54048252106,0.01,0.0,0.0,0.0,0.01,0.0,0.0,0.0,0.01
1584954938293418129,2322,1584954938293168474,imu_link,0.0310289878398,-0.229902729392,0.606040477753,0.760852754116,0.0,0.0,0.0,0.0,0.0,0.0,0.0,0.0,0.0,0.00156627688557,-0.00403696065769,-0.00256643537432,0.01,0.0,0.0,0.0,0.01,0.0,0.0,0.0,0.01,-3.73431777954,2.20575547218,-8.53387260437,0.01,0.0,0.0,0.0,0.01,0.0,0.0,0.0,0.01
1584954938318442216,2323,1584954938318150382,imu_link,0.0310752037913,-0.229906305671,0.606020331383,0.760865867138,0.0,0.0,0.0,0.0,0.0,0.0,0.0,0.0,0.0,0.00319199543446,-0.00272852019407,-0.00273316842504,0.01,0.0,0.0,0.0,0.01,0.0,0.0,0.0,0.01,-3.68527126312,2.20676445961,-8.50178909302,0.01,0.0,0.0,0.0,0.01,0.0,0.0,0.0,0.01
1584954938342454581,2324,1584954938342154642,imu_link,0.0311980303377,-0.229931235313,0.60594779253,0.760911107063,0.0,0.0,0.0,0.0,0.0,0.0,0.0,0.0,0.0,0.00541296694428,-0.0150238638744,-0.0134467333555,0.01,0.0,0.0,0.0,0.01,0.0,0.0,0.0,0.01,-3.57202267647,2.19456243515,-8.4326171875,0.01,0.0,0.0,0.0,0.01,0.0,0.0,0.0,0.01
1584954938368402864,2325,1584954938368113474,imu_link,0.0314210243523,-0.230058908463,0.605832993984,0.760954737663,0.0,0.0,0.0,0.0,0.0,0.0,0.0,0.0,0.0,0.00509510561824,-0.017465185374,-0.0107948258519,0.01,0.0,0.0,0.0,0.01,0.0,0.0,0.0,0.01,-3.7353322506,2.20270061493,-8.53043079376,0.01,0.0,0.0,0.0,0.01,0.0,0.0,0.0,0.01
1584954938392483585,2326,1584954938392096310,imu_link,0.0316057503223,-0.230142042041,0.605738043785,0.760997533798,0.0,0.0,0.0,0.0,0.0,0.0,0.0,0.0,0.0,0.00403731502593,-0.0112247336656,-0.0097686406225,0.01,0.0,0.0,0.0,0.01,0.0,0.0,0.0,0.01,-3.71398878098,2.22107076645,-8.49253940582,0.01,0.0,0.0,0.0,0.01,0.0,0.0,0.0,0.01
1584954938418497137,2327,1584954938418079086,imu_link,0.0317366532981,-0.230192929506,0.605654120445,0.761043488979,0.0,0.0,0.0,0.0,0.0,0.0,0.0,0.0,0.0,0.00367633998394,-0.00710374675691,-0.00746626453474,0.01,0.0,0.0,0.0,0.01,0.0,0.0,0.0,0.01,-3.73087263107,2.20152449608,-8.49773025513,0.01,0.0,0.0,0.0,0.01,0.0,0.0,0.0,0.01
1584954938442465484,2328,1584954938442153654,imu_link,0.0318052843213,-0.230254426599,0.605596005917,0.761068284512,0.0,0.0,0.0,0.0,0.0,0.0,0.0,0.0,0.0,-0.0018127290532,-0.00735819898546,-0.00546097289771,0.01,0.0,0.0,0.0,0.01,0.0,0.0,0.0,0.01,-3.73790931702,2.19187998772,-8.53359794617,0.01,0.0,0.0,0.0,0.01,0.0,0.0,0.0,0.01
1584954938468508130,2329,1584954938468137842,imu_link,0.0318480581045,-0.230369091034,0.605542302132,0.76107442379,0.0,0.0,0.0,0.0,0.0,0.0,0.0,0.0,0.0,-0.00437873415649,-0.0103314341977,-0.00283106928691,0.01,0.0,0.0,0.0,0.01,0.0,0.0,0.0,0.01,-3.72238516808,2.19622445107,-8.52001857758,0.01,0.0,0.0,0.0,0.01,0.0,0.0,0.0,0.01
1584954938492414494,2330,1584954938492099445,imu_link,0.031858522445,-0.230522245169,0.605520009995,0.761045455933,0.0,0.0,0.0,0.0,0.0,0.0,0.0,0.0,0.0,-0.00860070809722,-0.00439079804346,0.00296253757551,0.01,0.0,0.0,0.0,0.01,0.0,0.0,0.0,0.01,-3.80879926682,2.17930173874,-8.54604816437,0.01,0.0,0.0,0.0,0.01,0.0,0.0,0.0,0.01
1584954938518214270,2331,1584954938517988843,imu_link,0.0318124629557,-0.230568692088,0.605588138103,0.760979056358,0.0,0.0,0.0,0.0,0.0,0.0,0.0,0.0,0.0,0.000926556065679,-0.00620469544083,0.00856268499047,0.01,0.0,0.0,0.0,0.01,0.0,0.0,0.0,0.01,-3.6374027729,2.19951415062,-8.48847579956,0.01,0.0,0.0,0.0,0.01,0.0,0.0,0.0,0.01
1584954938543181980,2332,1584954938542954545,imu_link,0.0318618007004,-0.230646550655,0.605624556541,0.760924398899,0.0,0.0,0.0,0.0,0.0,0.0,0.0,0.0,0.0,-0.00166419427842,-0.00785954017192,0.00229419674724,0.01,0.0,0.0,0.0,0.01,0.0,0.0,0.0,0.01,-3.72699451447,2.1745865345,-8.51967811584,0.01,0.0,0.0,0.0,0.01,0.0,0.0,0.0,0.01
1584954938568079806,2333,1584954938567918652,imu_link,0.0319094993174,-0.230690509081,0.605656385422,0.760883748531,0.0,0.0,0.0,0.0,0.0,0.0,0.0,0.0,0.0,0.00289161596447,-0.00385365239345,0.00233375607058,0.01,0.0,0.0,0.0,0.01,0.0,0.0,0.0,0.01,-3.71800470352,2.24130725861,-8.4814825058,0.01,0.0,0.0,0.0,0.01,0.0,0.0,0.0,0.01
1584954938593333620,2334,1584954938593137311,imu_link,0.0320293791592,-0.230719253421,0.605639517307,0.760883390903,0.0,0.0,0.0,0.0,0.0,0.0,0.0,0.0,0.0,0.00721138622612,-0.00906196329743,-0.00624839728698,0.01,0.0,0.0,0.0,0.01,0.0,0.0,0.0,0.01,-3.75778341293,2.23916339874,-8.55665779114,0.01,0.0,0.0,0.0,0.01,0.0,0.0,0.0,0.01
1584954938618878996,2335,1584954938618310565,imu_link,0.0322043411434,-0.230744019151,0.605605006218,0.760896027088,0.0,0.0,0.0,0.0,0.0,0.0,0.0,0.0,0.0,0.00878895353526,-0.0107530672103,-0.0067545901984,0.01,0.0,0.0,0.0,0.01,0.0,0.0,0.0,0.01,-3.72276735306,2.20481777191,-8.54587078094,0.01,0.0,0.0,0.0,0.01,0.0,0.0,0.0,0.01
1584954938643733666,2336,1584954938643303639,imu_link,0.0323837287724,-0.230755403638,0.605584621429,0.760901153088,0.0,0.0,0.0,0.0,0.0,0.0,0.0,0.0,0.0,0.0109070315957,-0.0071687377058,-0.00310277519748,0.01,0.0,0.0,0.0,0.01,0.0,0.0,0.0,0.01,-3.77403116226,2.19157767296,-8.54617404938,0.01,0.0,0.0,0.0,0.01,0.0,0.0,0.0,0.01
1584954938668574897,2337,1584954938668147890,imu_link,0.0325798466802,-0.230716153979,0.605606734753,0.760887086391,0.0,0.0,0.0,0.0,0.0,0.0,0.0,0.0,0.0,0.0157240740955,-0.00870175845921,-0.00147648947313,0.01,0.0,0.0,0.0,0.01,0.0,0.0,0.0,0.01,-3.75883555412,2.20952320099,-8.51517772675,0.01,0.0,0.0,0.0,0.01,0.0,0.0,0.0,0.01
1584954938693709476,2338,1584954938693260545,imu_link,0.0328740663826,-0.230741471052,0.60563147068,0.76084703207,0.0,0.0,0.0,0.0,0.0,0.0,0.0,0.0,0.0,0.0177557095885,-0.024745086208,-0.00530784763396,0.01,0.0,0.0,0.0,0.01,0.0,0.0,0.0,0.01,-3.71860599518,2.26063013077,-8.54276371002,0.01,0.0,0.0,0.0,0.01,0.0,0.0,0.0,0.01
1584954938718226059,2339,1584954938717824167,imu_link,0.0333574935794,-0.230978131294,0.605545163155,0.760822951794,0.0,0.0,0.0,0.0,0.0,0.0,0.0,0.0,0.0,0.014917797409,-0.0462096482515,-0.01808504574,0.01,0.0,0.0,0.0,0.01,0.0,0.0,0.0,0.01,-3.7241897583,2.23231458664,-8.54881572723,0.01,0.0,0.0,0.0,0.01,0.0,0.0,0.0,0.01
1584954938743058660,2340,1584954938742823338,imu_link,0.0340081267059,-0.231424152851,0.60523879528,0.760902404785,0.0,0.0,0.0,0.0,0.0,0.0,0.0,0.0,0.0,0.00243734475225,-0.0646694600582,-0.0426920801401,0.01,0.0,0.0,0.0,0.01,0.0,0.0,0.0,0.01,-3.78482484818,2.21758508682,-8.61829185486,0.01,0.0,0.0,0.0,0.01,0.0,0.0,0.0,0.01
1584954938768077774,2341,1584954938767801701,imu_link,0.034532379359,-0.232100442052,0.604650259018,0.761140584946,0.0,0.0,0.0,0.0,0.0,0.0,0.0,0.0,0.0,-0.0284838825464,-0.0653509274125,-0.0681215673685,0.01,0.0,0.0,0.0,0.01,0.0,0.0,0.0,0.01,-3.95120048523,2.25403785706,-8.85988616943,0.01,0.0,0.0,0.0,0.01,0.0,0.0,0.0,0.01
1584954938792999431,2342,1584954938792776602,imu_link,0.0348132140934,-0.233072534204,0.603504598141,0.76173967123,0.0,0.0,0.0,0.0,0.0,0.0,0.0,0.0,0.0,-0.0819367095828,-0.0608416981995,-0.132558122277,0.01,0.0,0.0,0.0,0.01,0.0,0.0,0.0,0.01,-3.86564612389,2.03330206871,-9.04894447327,0.01,0.0,0.0,0.0,0.01,0.0,0.0,0.0,0.01
1584954938818025259,2343,1584954938817769824,imu_link,0.0345606990159,-0.235104322433,0.600906431675,0.763179540634,0.0,0.0,0.0,0.0,0.0,0.0,0.0,0.0,0.0,-0.22835804522,-0.146206513047,-0.301497101784,0.01,0.0,0.0,0.0,0.01,0.0,0.0,0.0,0.01,-3.41872549057,1.53364944458,-8.64228057861,0.01,0.0,0.0,0.0,0.01,0.0,0.0,0.0,0.01
1584954938843184942,2344,1584954938842822055,imu_link,0.035402096808,-0.239968061447,0.595580637455,0.765797436237,0.0,0.0,0.0,0.0,0.0,0.0,0.0,0.0,0.0,-0.223312020302,-0.460902899504,-0.556075274944,0.01,0.0,0.0,0.0,0.01,0.0,0.0,0.0,0.01,-3.61367487907,3.23260211945,-8.76105308533,0.01,0.0,0.0,0.0,0.01,0.0,0.0,0.0,0.01
1584954938868112834,2345,1584954938867818765,imu_link,0.041503932327,-0.244570031762,0.588878512383,0.769210636616,0.0,0.0,0.0,0.0,0.0,0.0,0.0,0.0,0.0,0.109447859228,-0.484422177076,-0.729514837265,0.01,0.0,0.0,0.0,0.01,0.0,0.0,0.0,0.01,-4.116314888,3.01978445053,-10.6303577423,0.01,0.0,0.0,0.0,0.01,0.0,0.0,0.0,0.01
1584954938893147424,2346,1584954938892792335,imu_link,0.0466779693961,-0.248239472508,0.582103848457,0.772886455059,0.0,0.0,0.0,0.0,0.0,0.0,0.0,0.0,0.0,-0.0614896714687,-0.406117290258,-0.645450472832,0.01,0.0,0.0,0.0,0.01,0.0,0.0,0.0,0.01,-2.59938335419,3.31185555458,-9.28488731384,0.01,0.0,0.0,0.0,0.01,0.0,0.0,0.0,0.01
1584954938918083536,2347,1584954938917747722,imu_link,0.0517399758101,-0.252882897854,0.575924634933,0.775682866573,0.0,0.0,0.0,0.0,0.0,0.0,0.0,0.0,0.0,-0.00690105650574,-0.538942039013,-0.538240909576,0.01,0.0,0.0,0.0,0.01,0.0,0.0,0.0,0.01,-1.46716880798,3.99252986908,-9.31271743774,0.01,0.0,0.0,0.0,0.01,0.0,0.0,0.0,0.01
1584954938943071303,2348,1584954938942716651,imu_link,0.0574640370905,-0.257955282927,0.572084248066,0.776451349258,0.0,0.0,0.0,0.0,0.0,0.0,0.0,0.0,0.0,0.0695141255856,-0.600982904434,-0.234246850014,0.01,0.0,0.0,0.0,0.01,0.0,0.0,0.0,0.01,0.10757958889,4.53333616257,-9.48487186432,0.01,0.0,0.0,0.0,0.01,0.0,0.0,0.0,0.01
1584954938968031513,2349,1584954938967715286,imu_link,0.061910983175,-0.263188034296,0.571837007999,0.774533092976,0.0,0.0,0.0,0.0,0.0,0.0,0.0,0.0,0.0,-0.005446289666,-0.509772360325,0.169543713331,0.01,0.0,0.0,0.0,0.01,0.0,0.0,0.0,0.01,0.97260248661,4.26318359375,-10.5269451141,0.01,0.0,0.0,0.0,0.01,0.0,0.0,0.0,0.01
1584954938992981199,2350,1584954938992675172,imu_link,0.0627079680562,-0.266945332289,0.575023293495,0.770815193653,0.0,0.0,0.0,0.0,0.0,0.0,0.0,0.0,0.0,-0.0253029316664,-0.19335347414,0.467784166336,0.01,0.0,0.0,0.0,0.01,0.0,0.0,0.0,0.01,1.12770700455,3.37253069878,-11.4485406876,0.01,0.0,0.0,0.0,0.01,0.0,0.0,0.0,0.01
1584954939017964728,2351,1584954939017668754,imu_link,0.0603931508958,-0.266893327236,0.580374956131,0.766997814178,0.0,0.0,0.0,0.0,0.0,0.0,0.0,0.0,0.0,-0.0054513560608,0.231613337994,0.604046404362,0.01,0.0,0.0,0.0,0.01,0.0,0.0,0.0,0.01,0.964989721775,2.75652599335,-11.9015474319,0.01,0.0,0.0,0.0,0.01,0.0,0.0,0.0,0.01
1584954939042968802,2352,1584954939042648029,imu_link,0.0547695569694,-0.262343645096,0.587109386921,0.763857841492,0.0,0.0,0.0,0.0,0.0,0.0,0.0,0.0,0.0,0.0430111326277,0.677172541618,0.686265826225,0.01,0.0,0.0,0.0,0.01,0.0,0.0,0.0,0.01,0.777286410332,2.75240182877,-11.7395057678,0.01,0.0,0.0,0.0,0.01,0.0,0.0,0.0,0.01
1584954939067935214,2353,1584954939067639021,imu_link,0.0458549931645,-0.253968089819,0.594699919224,0.761399805546,0.0,0.0,0.0,0.0,0.0,0.0,0.0,0.0,0.0,-0.0115096271038,1.06078052521,0.7582706213,0.01,0.0,0.0,0.0,0.01,0.0,0.0,0.0,0.01,0.381576478481,2.82744932175,-11.462890625,0.01,0.0,0.0,0.0,0.01,0.0,0.0,0.0,0.01
1584954939092909981,2354,1584954939092606014,imu_link,0.0327984206378,-0.242775827646,0.602671682835,0.759454488754,0.0,0.0,0.0,0.0,0.0,0.0,0.0,0.0,0.0,-0.153540119529,1.44638538361,0.834833681583,0.01,0.0,0.0,0.0,0.01,0.0,0.0,0.0,0.01,-0.636586129665,2.71953558922,-11.3318061829,0.01,0.0,0.0,0.0,0.01,0.0,0.0,0.0,0.01
1584954939117862665,2355,1584954939117558288,imu_link,0.0161559041589,-0.229335561395,0.610607504845,0.75782763958,0.0,0.0,0.0,0.0,0.0,0.0,0.0,0.0,0.0,-0.218786239624,1.69066381454,0.845996141434,0.01,0.0,0.0,0.0,0.01,0.0,0.0,0.0,0.01,-1.50829529762,2.44624042511,-10.6666765213,0.01,0.0,0.0,0.0,0.01,0.0,0.0,0.0,0.01
1584954939142912530,2356,1584954939142580387,imu_link,-0.00190528936218,-0.214380264282,0.617871701717,0.756486713886,0.0,0.0,0.0,0.0,0.0,0.0,0.0,0.0,0.0,-0.238699197769,1.8215045929,0.790424346924,0.01,0.0,0.0,0.0,0.01,0.0,0.0,0.0,0.01,-2.57775306702,2.10706949234,-10.3323698044,0.01,0.0,0.0,0.0,0.01,0.0,0.0,0.0,0.01
1584954939167842844,2357,1584954939167547397,imu_link,-0.0208427757025,-0.198820993304,0.623640060425,0.755717396736,0.0,0.0,0.0,0.0,0.0,0.0,0.0,0.0,0.0,-0.306648313999,1.87571692467,0.645886778831,0.01,0.0,0.0,0.0,0.01,0.0,0.0,0.0,0.01,-3.74852228165,1.4206674099,-9.49625778198,0.01,0.0,0.0,0.0,0.01,0.0,0.0,0.0,0.01
1584954939192837445,2358,1584954939192530880,imu_link,-0.0396540388465,-0.183817714453,0.626751124859,0.756188929081,0.0,0.0,0.0,0.0,0.0,0.0,0.0,0.0,0.0,-0.352471977472,1.82406270504,0.370626151562,0.01,0.0,0.0,0.0,0.01,0.0,0.0,0.0,0.01,-4.90203666687,1.14274227619,-8.8369550705,0.01,0.0,0.0,0.0,0.01,0.0,0.0,0.0,0.01
1584954939217814906,2359,1584954939217527695,imu_link,-0.0575833022594,-0.169841587543,0.626374661922,0.758612513542,0.0,0.0,0.0,0.0,0.0,0.0,0.0,0.0,0.0,-0.416177898645,1.74217033386,0.0212360229343,0.01,0.0,0.0,0.0,0.01,0.0,0.0,0.0,0.01,-5.34702634811,0.71585226059,-7.46419858932,0.01,0.0,0.0,0.0,0.01,0.0,0.0,0.0,0.01
1584954939242879414,2360,1584954939242485698,imu_link,-0.0746542513371,-0.158608675003,0.622083365917,0.763074338436,0.0,0.0,0.0,0.0,0.0,0.0,0.0,0.0,0.0,-0.579735934734,1.52689790726,-0.348352819681,0.01,0.0,0.0,0.0,0.01,0.0,0.0,0.0,0.01,-5.60354852676,0.433750241995,-6.07232570648,0.01,0.0,0.0,0.0,0.01,0.0,0.0,0.0,0.01
1584954939267833287,2361,1584954939267516777,imu_link,-0.0906747952104,-0.151218473911,0.613949000835,0.769400954247,0.0,0.0,0.0,0.0,0.0,0.0,0.0,0.0,0.0,-0.723356902599,1.27311956882,-0.697875916958,0.01,0.0,0.0,0.0,0.01,0.0,0.0,0.0,0.01,-6.1067533493,0.875473022461,-5.35016298294,0.01,0.0,0.0,0.0,0.01,0.0,0.0,0.0,0.01
1584954939292710483,2362,1584954939292486878,imu_link,-0.10504501313,-0.147416204214,0.602989971638,0.776940882206,0.0,0.0,0.0,0.0,0.0,0.0,0.0,0.0,0.0,-0.804197192192,0.995388746262,-0.915370225906,0.01,0.0,0.0,0.0,0.01,0.0,0.0,0.0,0.01,-6.00017976761,1.67291998863,-4.46405124664,0.01,0.0,0.0,0.0,0.01,0.0,0.0,0.0,0.01
1584954939317609302,2363,1584954939317427494,imu_link,-0.117242641747,-0.147192105651,0.59110635519,0.784335374832,0.0,0.0,0.0,0.0,0.0,0.0,0.0,0.0,0.0,-0.825603783131,0.647232592106,-0.956289470196,0.01,0.0,0.0,0.0,0.01,0.0,0.0,0.0,0.01,-6.06999492645,2.47407221794,-4.15379858017,0.01,0.0,0.0,0.0,0.01,0.0,0.0,0.0,0.01
1584954939342557385,2364,1584954939342382772,imu_link,-0.126413494349,-0.149436444044,0.580138862133,0.7906498909,0.0,0.0,0.0,0.0,0.0,0.0,0.0,0.0,0.0,-0.673780620098,0.358626455069,-0.834124565125,0.01,0.0,0.0,0.0,0.01,0.0,0.0,0.0,0.01,-6.56438493729,3.85910725594,-4.55104827881,0.01,0.0,0.0,0.0,0.01,0.0,0.0,0.0,0.01
1584954939367518695,2365,1584954939367342040,imu_link,-0.131393119693,-0.152769759297,0.572896242142,0.794472813606,0.0,0.0,0.0,0.0,0.0,0.0,0.0,0.0,0.0,-0.405277878046,-0.0299783051014,-0.425375550985,0.01,0.0,0.0,0.0,0.01,0.0,0.0,0.0,0.01,-6.68515539169,5.09670114517,-3.41076254845,0.01,0.0,0.0,0.0,0.01,0.0,0.0,0.0,0.01
1584954939392600635,2366,1584954939392316451,imu_link,-0.112284220755,-0.165368855,0.570464909077,0.796627402306,0.0,0.0,0.0,0.0,0.0,0.0,0.0,0.0,0.0,0.708467543125,-1.77244508266,-0.535367786884,0.01,0.0,0.0,0.0,0.01,0.0,0.0,0.0,0.01,-0.826775550842,-0.330397605896,-8.74365329742,0.01,0.0,0.0,0.0,0.01,0.0,0.0,0.0,0.01
1584954939418231520,2367,1584954939417650438,imu_link,-0.0929965898395,-0.17753316462,0.569596886635,0.797115504742,0.0,0.0,0.0,0.0,0.0,0.0,0.0,0.0,0.0,0.861086368561,-1.57235765457,-0.706995487213,0.01,0.0,0.0,0.0,0.01,0.0,0.0,0.0,0.01,-0.442713975906,1.42559587955,-13.7823553085,0.01,0.0,0.0,0.0,0.01,0.0,0.0,0.0,0.01
1584954939443276882,2368,1584954939442776048,imu_link,-0.0707775652409,-0.193268164992,0.564514160156,0.799350857735,0.0,0.0,0.0,0.0,0.0,0.0,0.0,0.0,0.0,0.508091926575,-1.99135577679,-0.695438563824,0.01,0.0,0.0,0.0,0.01,0.0,0.0,0.0,0.01,-7.68888282776,1.65802705288,-13.1489257812,0.01,0.0,0.0,0.0,0.01,0.0,0.0,0.0,0.01
1584954939468027915,2369,1584954939467536233,imu_link,-0.0567540228367,-0.201503962278,0.562693834305,0.799719154835,0.0,0.0,0.0,0.0,0.0,0.0,0.0,0.0,0.0,0.504257023335,-0.768199384212,-0.13563105464,0.01,0.0,0.0,0.0,0.01,0.0,0.0,0.0,0.01,-4.5422949791,4.27743959427,-10.2400856018,0.01,0.0,0.0,0.0,0.01,0.0,0.0,0.0,0.01
1584954939493224155,2370,1584954939492700420,imu_link,-0.0485561788082,-0.209209308028,0.56269800663,0.798276126385,0.0,0.0,0.0,0.0,0.0,0.0,0.0,0.0,0.0,-0.0608603134751,-0.986861884594,-0.15723733604,0.01,0.0,0.0,0.0,0.01,0.0,0.0,0.0,0.01,-2.11972808838,-0.143060609698,-8.69345664978,0.01,0.0,0.0,0.0,0.01,0.0,0.0,0.0,0.01
1584954939518036250,2371,1584954939517538340,imu_link,-0.0416029393673,-0.218373835087,0.561943054199,0.796744704247,0.0,0.0,0.0,0.0,0.0,0.0,0.0,0.0,0.0,0.263085663319,-0.833387851715,-0.106763668358,0.01,0.0,0.0,0.0,0.01,0.0,0.0,0.0,0.01,-4.66795110703,6.70536994934,-9.83973503113,0.01,0.0,0.0,0.0,0.01,0.0,0.0,0.0,0.01
1584954939543365782,2372,1584954939542777959,imu_link,-0.0311216842383,-0.222166240215,0.562385082245,0.795862138271,0.0,0.0,0.0,0.0,0.0,0.0,0.0,0.0,0.0,0.564613223076,-0.699644505978,-0.166038319468,0.01,0.0,0.0,0.0,0.01,0.0,0.0,0.0,0.01,-4.0015668869,2.28954076767,-10.0005235672,0.01,0.0,0.0,0.0,0.01,0.0,0.0,0.0,0.01
1584954939567426127,2373,1584954939567200803,imu_link,-0.0216743312776,-0.223658904433,0.562898874283,0.795394182205,0.0,0.0,0.0,0.0,0.0,0.0,0.0,0.0,0.0,0.528108537197,-0.359404206276,-0.0692821070552,0.01,0.0,0.0,0.0,0.01,0.0,0.0,0.0,0.01,-5.24708271027,2.69161057472,-10.5833330154,0.01,0.0,0.0,0.0,0.01,0.0,0.0,0.0,0.01
1584954939592742423,2374,1584954939592197254,imu_link,-0.0162756256759,-0.223191082478,0.563967168331,0.794897377491,0.0,0.0,0.0,0.0,0.0,0.0,0.0,0.0,0.0,0.318405479193,-0.19885879755,0.0180290453136,0.01,0.0,0.0,0.0,0.01,0.0,0.0,0.0,0.01,-3.28564691544,2.8869073391,-8.98056697845,0.01,0.0,0.0,0.0,0.01,0.0,0.0,0.0,0.01
1584954939617395078,2375,1584954939617138795,imu_link,-0.0124207567424,-0.222732529044,0.564881324768,0.794446408749,0.0,0.0,0.0,0.0,0.0,0.0,0.0,0.0,0.0,0.24035602808,-0.118072845042,0.00664219353348,0.01,0.0,0.0,0.0,0.01,0.0,0.0,0.0,0.01,-3.54393172264,2.31040287018,-8.99476623535,0.01,0.0,0.0,0.0,0.01,0.0,0.0,0.0,0.01
1584954939642359803,2376,1584954939642125231,imu_link,-0.0098875220865,-0.222056731582,0.565472483635,0.794250547886,0.0,0.0,0.0,0.0,0.0,0.0,0.0,0.0,0.0,0.182893633842,-0.0509544499218,-0.00632707681507,0.01,0.0,0.0,0.0,0.01,0.0,0.0,0.0,0.01,-3.52654457092,2.66693258286,-8.85861968994,0.01,0.0,0.0,0.0,0.01,0.0,0.0,0.0,0.01
1584954939667555780,2377,1584954939667157974,imu_link,-0.00798895768821,-0.22130009532,0.56578707695,0.794259130955,0.0,0.0,0.0,0.0,0.0,0.0,0.0,0.0,0.0,0.143997624516,-0.0428555831313,-0.014971524477,0.01,0.0,0.0,0.0,0.01,0.0,0.0,0.0,0.01,-3.18182516098,2.42281913757,-8.73077011108,0.01,0.0,0.0,0.0,0.01,0.0,0.0,0.0,0.01
1584954939692658553,2378,1584954939692193319,imu_link,-0.00609089015052,-0.220814719796,0.565930783749,0.79430860281,0.0,0.0,0.0,0.0,0.0,0.0,0.0,0.0,0.0,0.158915832639,-0.0617636889219,-0.0309198591858,0.01,0.0,0.0,0.0,0.01,0.0,0.0,0.0,0.01,-3.10142946243,2.57315921783,-8.55901908875,0.01,0.0,0.0,0.0,0.01,0.0,0.0,0.0,0.01
1584954939717311505,2379,1584954939717091532,imu_link,-0.00353548605926,-0.220198825002,0.565933048725,0.794493436813,0.0,0.0,0.0,0.0,0.0,0.0,0.0,0.0,0.0,0.215244114399,-0.0867301672697,-0.0704759061337,0.01,0.0,0.0,0.0,0.01,0.0,0.0,0.0,0.01,-3.0573554039,2.60465216637,-8.45718383789,0.01,0.0,0.0,0.0,0.01,0.0,0.0,0.0,0.01
1584954939742398825,2380,1584954939742116233,imu_link,-0.000355583120836,-0.219322383404,0.565634787083,0.794955849648,0.0,0.0,0.0,0.0,0.0,0.0,0.0,0.0,0.0,0.253951251507,-0.0703389719129,-0.109010480344,0.01,0.0,0.0,0.0,0.01,0.0,0.0,0.0,0.01,-3.13188457489,2.5819683075,-8.46415710449,0.01,0.0,0.0,0.0,0.01,0.0,0.0,0.0,0.01
1584954939767311371,2381,1584954939767043299,imu_link,0.00370138022117,-0.218269571662,0.564882695675,0.795771539211,0.0,0.0,0.0,0.0,0.0,0.0,0.0,0.0,0.0,0.304980367422,-0.100685849786,-0.18094779551,0.01,0.0,0.0,0.0,0.01,0.0,0.0,0.0,0.01,-3.16930031776,2.37465572357,-8.50225734711,0.01,0.0,0.0,0.0,0.01,0.0,0.0,0.0,0.01
1584954939792313316,2382,1584954939792068038,imu_link,0.00748839275911,-0.217313930392,0.563735067844,0.79681956768,0.0,0.0,0.0,0.0,0.0,0.0,0.0,0.0,0.0,0.253341704607,-0.0873801708221,-0.188662186265,0.01,0.0,0.0,0.0,0.01,0.0,0.0,0.0,0.01,-3.30534529686,2.31807136536,-8.60931015015,0.01,0.0,0.0,0.0,0.01,0.0,0.0,0.0,0.01
1584954939817348294,2383,1584954939817046619,imu_link,0.0112057859078,-0.216420128942,0.562427639961,0.797942340374,0.0,0.0,0.0,0.0,0.0,0.0,0.0,0.0,0.0,0.252620875835,-0.102925501764,-0.205199599266,0.01,0.0,0.0,0.0,0.01,0.0,0.0,0.0,0.01,-3.27632498741,2.17512631416,-8.64282131195,0.01,0.0,0.0,0.0,0.01,0.0,0.0,0.0,0.01
1584954939842286021,2384,1584954939841991757,imu_link,0.0154183646664,-0.216077789664,0.560798883438,0.799110352993,0.0,0.0,0.0,0.0,0.0,0.0,0.0,0.0,0.0,0.255532473326,-0.188458159566,-0.251620173454,0.01,0.0,0.0,0.0,0.01,0.0,0.0,0.0,0.01,-3.35692811012,2.08414697647,-8.70300674438,0.01,0.0,0.0,0.0,0.01,0.0,0.0,0.0,0.01
1584954939867370242,2385,1584954939867080808,imu_link,0.0202012527734,-0.216207459569,0.558767735958,0.800390481949,0.0,0.0,0.0,0.0,0.0,0.0,0.0,0.0,0.0,0.256165206432,-0.220637157559,-0.271210253239,0.01,0.0,0.0,0.0,0.01,0.0,0.0,0.0,0.01,-3.16023182869,1.83694791794,-8.39912223816,0.01,0.0,0.0,0.0,0.01,0.0,0.0,0.0,0.01
1584954939892274669,2386,1584954939892044479,imu_link,0.0255088303238,-0.217116951942,0.556418299675,0.801628530025,0.0,0.0,0.0,0.0,0.0,0.0,0.0,0.0,0.0,0.235988587141,-0.338799595833,-0.312470018864,0.01,0.0,0.0,0.0,0.01,0.0,0.0,0.0,0.01,-3.30459570885,1.56771183014,-8.68669319153,0.01,0.0,0.0,0.0,0.01,0.0,0.0,0.0,0.01
1584954939917340252,2387,1584954939917016643,imu_link,0.0313950031996,-0.219651579857,0.553464829922,0.802772879601,0.0,0.0,0.0,0.0,0.0,0.0,0.0,0.0,0.0,0.210026055574,-0.446464240551,-0.360209792852,0.01,0.0,0.0,0.0,0.01,0.0,0.0,0.0,0.01,-4.08802366257,2.021494627,-8.5222234726,0.01,0.0,0.0,0.0,0.01,0.0,0.0,0.0,0.01
1584954939942288356,2388,1584954939941999143,imu_link,0.0373102203012,-0.22275441885,0.549871444702,0.80413299799,0.0,0.0,0.0,0.0,0.0,0.0,0.0,0.0,0.0,0.142894774675,-0.530269086361,-0.41191726923,0.01,0.0,0.0,0.0,0.01,0.0,0.0,0.0,0.01,-3.06671595573,2.23979663849,-8.61234092712,0.01,0.0,0.0,0.0,0.01,0.0,0.0,0.0,0.01
1584954939967312474,2389,1584954939967011937,imu_link,0.0443774834275,-0.22919344902,0.545296430588,0.805079400539,0.0,0.0,0.0,0.0,0.0,0.0,0.0,0.0,0.0,0.0639841705561,-0.882597148418,-0.447538375854,0.01,0.0,0.0,0.0,0.01,0.0,0.0,0.0,0.01,-3.06402015686,1.38181173801,-8.11531543732,0.01,0.0,0.0,0.0,0.01,0.0,0.0,0.0,0.01
1584954939992257504,2390,1584954939991959618,imu_link,0.0564725585282,-0.241545572877,0.539758980274,0.804441928864,0.0,0.0,0.0,0.0,0.0,0.0,0.0,0.0,0.0,0.212387055159,-1.63030695915,-0.554729104042,0.01,0.0,0.0,0.0,0.01,0.0,0.0,0.0,0.01,-4.21964550018,1.51839900017,-8.72726917267,0.01,0.0,0.0,0.0,0.01,0.0,0.0,0.0,0.01
1584954940017212770,2391,1584954940016907599,imu_link,0.0739170089364,-0.259974449873,0.533049046993,0.801753342152,0.0,0.0,0.0,0.0,0.0,0.0,0.0,0.0,0.0,0.193016275764,-2.31628346443,-0.614855408669,0.01,0.0,0.0,0.0,0.01,0.0,0.0,0.0,0.01,-3.89379167557,1.84124350548,-8.92834091187,0.01,0.0,0.0,0.0,0.01,0.0,0.0,0.0,0.01
1584954940042776535,2392,1584954940042091021,imu_link,0.0969057232141,-0.287847071886,0.522690534592,0.796585202217,0.0,0.0,0.0,0.0,0.0,0.0,0.0,0.0,0.0,0.0345873311162,-3.44305634499,-0.855704665184,0.01,0.0,0.0,0.0,0.01,0.0,0.0,0.0,0.01,-4.12256717682,2.41124272346,-8.58793258667,0.01,0.0,0.0,0.0,0.01,0.0,0.0,0.0,0.01
1584954940067269803,2393,1584954940066952606,imu_link,0.13017514348,-0.330749839544,0.50787127018,0.784681975842,0.0,0.0,0.0,0.0,0.0,0.0,0.0,0.0,0.0,0.175398901105,-5.41347122192,-1.00289213657,0.01,0.0,0.0,0.0,0.01,0.0,0.0,0.0,0.01,-1.84855771065,1.99440455437,-11.0774822235,0.01,0.0,0.0,0.0,0.01,0.0,0.0,0.0,0.01
1584954940092174916,2394,1584954940091875267,imu_link,0.175054267049,-0.396803766489,0.481905281544,0.761360704899,0.0,0.0,0.0,0.0,0.0,0.0,0.0,0.0,0.0,-0.79274058342,-7.94074678421,-1.4311221838,0.01,0.0,0.0,0.0,0.01,0.0,0.0,0.0,0.01,-3.25068831444,1.00767147541,-16.2349281311,0.01,0.0,0.0,0.0,0.01,0.0,0.0,0.0,0.01
1584954940117192545,2395,1584954940116876320,imu_link,0.225974455476,-0.482722431421,0.441843599081,0.721587717533,0.0,0.0,0.0,0.0,0.0,0.0,0.0,0.0,0.0,-0.940785884857,-9.26148414612,-1.50609350204,0.01,0.0,0.0,0.0,0.01,0.0,0.0,0.0,0.01,-7.87907600403,8.1863899231,-23.1050491333,0.01,0.0,0.0,0.0,0.01,0.0,0.0,0.0,0.01
1584954940142186366,2396,1584954940141846291,imu_link,0.27971893549,-0.561999261379,0.390620321035,0.67329788208,0.0,0.0,0.0,0.0,0.0,0.0,0.0,0.0,0.0,0.435567945242,-8.73391056061,-2.44051241875,0.01,0.0,0.0,0.0,0.01,0.0,0.0,0.0,0.01,-18.8290519714,16.6231079102,-21.0211601257,0.01,0.0,0.0,0.0,0.01,0.0,0.0,0.0,0.01
1584954940166914843,2397,1584954940166724540,imu_link,0.348488599062,-0.593522429466,0.358157932758,0.630880117416,0.0,0.0,0.0,0.0,0.0,0.0,0.0,0.0,0.0,2.43006300926,-4.46965169907,-2.22293901443,0.01,0.0,0.0,0.0,0.01,0.0,0.0,0.0,0.01,-19.7542533875,13.7259235382,-41.0849189758,0.01,0.0,0.0,0.0,0.01,0.0,0.0,0.0,0.01
1584954940191922816,2398,1584954940191720574,imu_link,0.360011965036,-0.583266794682,0.367424666882,0.628641724586,0.0,0.0,0.0,0.0,0.0,0.0,0.0,0.0,0.0,0.565445303917,2.05999946594,0.566832065582,0.01,0.0,0.0,0.0,0.01,0.0,0.0,0.0,0.01,0.818987667561,8.50169754028,-17.3313007355,0.01,0.0,0.0,0.0,0.01,0.0,0.0,0.0,0.01
1584954940216884444,2399,1584954940216694780,imu_link,0.351861923933,-0.568056881428,0.388225853443,0.634653627872,0.0,0.0,0.0,0.0,0.0,0.0,0.0,0.0,0.0,1.07510471344,1.66425037384,0.772699058056,0.01,0.0,0.0,0.0,0.01,0.0,0.0,0.0,0.01,6.4226808548,4.75004720688,-2.137362957,0.01,0.0,0.0,0.0,0.01,0.0,0.0,0.0,0.01
1584954940242056614,2400,1584954940241839865,imu_link,0.342465847731,-0.555405676365,0.40862801671,0.638173103333,0.0,0.0,0.0,0.0,0.0,0.0,0.0,0.0,0.0,0.381732970476,1.9634257555,1.18092238903,0.01,0.0,0.0,0.0,0.01,0.0,0.0,0.0,0.01,0.94777661562,3.89386510849,-8.60792732239,0.01,0.0,0.0,0.0,0.01,0.0,0.0,0.0,0.01
1584954940266910832,2401,1584954940266748002,imu_link,0.319247573614,-0.538265585899,0.433543503284,0.648375868797,0.0,0.0,0.0,0.0,0.0,0.0,0.0,0.0,0.0,0.275585889816,3.32122540474,1.70526194572,0.01,0.0,0.0,0.0,0.01,0.0,0.0,0.0,0.01,-2.01661133766,5.93511581421,-11.9508066177,0.01,0.0,0.0,0.0,0.01,0.0,0.0,0.0,0.01
1584954940292165079,2402,1584954940291921534,imu_link,0.286974340677,-0.510654866695,0.467572927475,0.662006855011,0.0,0.0,0.0,0.0,0.0,0.0,0.0,0.0,0.0,0.390938907862,4.40262460709,2.14953994751,0.01,0.0,0.0,0.0,0.01,0.0,0.0,0.0,0.01,-3.94015955925,3.05680656433,-9.35924053192,0.01,0.0,0.0,0.0,0.01,0.0,0.0,0.0,0.01
1584954940317425577,2403,1584954940316948990,imu_link,0.245797172189,-0.476785778999,0.503823339939,0.677067995071,0.0,0.0,0.0,0.0,0.0,0.0,0.0,0.0,0.0,0.138521254063,4.98342704773,2.27946066856,0.01,0.0,0.0,0.0,0.01,0.0,0.0,0.0,0.01,-5.43761730194,0.728122234344,-8.12571144104,0.01,0.0,0.0,0.0,0.01,0.0,0.0,0.0,0.01
1584954940342452577,2404,1584954940341961467,imu_link,0.200495675206,-0.437157839537,0.537332236767,0.692797660828,0.0,0.0,0.0,0.0,0.0,0.0,0.0,0.0,0.0,0.107700131834,5.39963912964,1.97840285301,0.01,0.0,0.0,0.0,0.01,0.0,0.0,0.0,0.01,-7.8026509285,-0.876695632935,-10.0329341888,0.01,0.0,0.0,0.0,0.01,0.0,0.0,0.0,0.01
1584954940368452589,2405,1584954940367225684,imu_link,0.152860715985,-0.391197174788,0.56452447176,0.710570633411,0.0,0.0,0.0,0.0,0.0,0.0,0.0,0.0,0.0,-0.0659322813153,5.8387799263,1.45944142342,0.01,0.0,0.0,0.0,0.01,0.0,0.0,0.0,0.01,-9.42950057983,-1.20409440994,-10.7025613785,0.01,0.0,0.0,0.0,0.01,0.0,0.0,0.0,0.01
1584954940392722438,2406,1584954940392081500,imu_link,0.103080280125,-0.34052297473,0.584205806255,0.72946703434,0.0,0.0,0.0,0.0,0.0,0.0,0.0,0.0,0.0,-0.155306845903,6.09941244125,1.07518148422,0.01,0.0,0.0,0.0,0.01,0.0,0.0,0.0,0.01,-10.8843994141,1.42746424675,-13.037610054,0.01,0.0,0.0,0.0,0.01,0.0,0.0,0.0,0.01
1584954940416874953,2407,1584954940416561909,imu_link,0.0502930879593,-0.285466223955,0.599576234818,0.745981216431,0.0,0.0,0.0,0.0,0.0,0.0,0.0,0.0,0.0,-0.292527765036,6.24091434479,1.1964161396,0.01,0.0,0.0,0.0,0.01,0.0,0.0,0.0,0.01,-12.6992330551,3.97040820122,-13.6400432587,0.01,0.0,0.0,0.0,0.01,0.0,0.0,0.0,0.01
1584954940441820925,2408,1584954940441557115,imu_link,-0.00514684664086,-0.231262862682,0.613485634327,0.755067169666,0.0,0.0,0.0,0.0,0.0,0.0,0.0,0.0,0.0,-0.503056168556,6.20362567902,1.62153172493,0.01,0.0,0.0,0.0,0.01,0.0,0.0,0.0,0.01,-19.6350021362,4.64712142944,-16.9768772125,0.01,0.0,0.0,0.0,0.01,0.0,0.0,0.0,0.01
1584954940466678702,2409,1584954940466521351,imu_link,-0.0625358000398,-0.174644455314,0.624753713608,0.758466482162,0.0,0.0,0.0,0.0,0.0,0.0,0.0,0.0,0.0,-0.433951228857,6.27351951599,1.42342996597,0.01,0.0,0.0,0.0,0.01,0.0,0.0,0.0,0.01,-28.857755661,2.23414945602,-14.6705713272,0.01,0.0,0.0,0.0,0.01,0.0,0.0,0.0,0.01
1584954940491792507,2410,1584954940491513193,imu_link,-0.113575637341,-0.120997972786,0.625231325626,0.762591540813,0.0,0.0,0.0,0.0,0.0,0.0,0.0,0.0,0.0,-0.444443434477,5.45894861221,0.318018436432,0.01,0.0,0.0,0.0,0.01,0.0,0.0,0.0,0.01,-32.1719665527,-2.48261475563,-2.95623111725,0.01,0.0,0.0,0.0,0.01,0.0,0.0,0.0,0.01
1584954940516827805,2411,1584954940516523508,imu_link,-0.152219206095,-0.0856058076024,0.610787689686,0.772294819355,0.0,0.0,0.0,0.0,0.0,0.0,0.0,0.0,0.0,-0.923544108868,3.42650818825,-1.31139552593,0.01,0.0,0.0,0.0,0.01,0.0,0.0,0.0,0.01,-37.3367996216,-3.90476989746,16.3770103455,0.01,0.0,0.0,0.0,0.01,0.0,0.0,0.0,0.01
1584954940541913550,2412,1584954940541566928,imu_link,-0.167614489794,-0.0869156867266,0.593869507313,0.782093465328,0.0,0.0,0.0,0.0,0.0,0.0,0.0,0.0,0.0,0.500183165073,-1.87776207924,-1.59768819809,0.01,0.0,0.0,0.0,0.01,0.0,0.0,0.0,0.01,-30.7164077759,5.3163485527,37.6324768066,0.01,0.0,0.0,0.0,0.01,0.0,0.0,0.0,0.01
1584954940566859351,2413,1584954940566548850,imu_link,-0.124353468418,-0.117137640715,0.584052085876,0.793535232544,0.0,0.0,0.0,0.0,0.0,0.0,0.0,0.0,0.0,0.617250204086,-3.29628229141,-1.02952718735,0.01,0.0,0.0,0.0,0.01,0.0,0.0,0.0,0.01,-4.14378499985,15.5977993011,-41.0592765808,0.01,0.0,0.0,0.0,0.01,0.0,0.0,0.0,0.01
1584954940591763671,2414,1584954940591517840,imu_link,-0.0963022112846,-0.150926172733,0.575724601746,0.797802209854,0.0,0.0,0.0,0.0,0.0,0.0,0.0,0.0,0.0,-0.310536473989,-4.55462503433,-0.868433654308,0.01,0.0,0.0,0.0,0.01,0.0,0.0,0.0,0.01,-7.87267017365,-5.54186820984,2.12312746048,0.01,0.0,0.0,0.0,0.01,0.0,0.0,0.0,0.01
1584954940616778856,2415,1584954940616488193,imu_link,-0.0776289775968,-0.185948267579,0.572825431824,0.794523835182,0.0,0.0,0.0,0.0,0.0,0.0,0.0,0.0,0.0,-0.420419961214,-2.22992420197,-0.376442998648,0.01,0.0,0.0,0.0,0.01,0.0,0.0,0.0,0.01,-9.84037017822,-0.88919121027,-15.3684577942,0.01,0.0,0.0,0.0,0.01,0.0,0.0,0.0,0.01
1584954940641746826,2416,1584954940641460481,imu_link,-0.0660629943013,-0.207429438829,0.573091387749,0.79004752636,0.0,0.0,0.0,0.0,0.0,0.0,0.0,0.0,0.0,-0.017310269177,-1.64929771423,-0.0119787603617,0.01,0.0,0.0,0.0,0.01,0.0,0.0,0.0,0.01,-7.06089401245,8.13030052185,-12.4468822479,0.01,0.0,0.0,0.0,0.01,0.0,0.0,0.0,0.01
1584954940666773223,2417,1584954940666449311,imu_link,-0.0525019317865,-0.218375504017,0.574126422405,0.787359297276,0.0,0.0,0.0,0.0,0.0,0.0,0.0,0.0,0.0,0.525269329548,-1.20411372185,-0.110655546188,0.01,0.0,0.0,0.0,0.01,0.0,0.0,0.0,0.01,-4.31191492081,5.14254713058,-10.6451940536,0.01,0.0,0.0,0.0,0.01,0.0,0.0,0.0,0.01
1584954940691649279,2418,1584954940691421513,imu_link,-0.0377058424056,-0.222985446453,0.574942827225,0.786318361759,0.0,0.0,0.0,0.0,0.0,0.0,0.0,0.0,0.0,0.768439531326,-0.91532176733,-0.198318600655,0.01,0.0,0.0,0.0,0.01,0.0,0.0,0.0,0.01,-3.84832668304,2.14379358292,-10.3128900528,0.01,0.0,0.0,0.0,0.01,0.0,0.0,0.0,0.01
1584954940716709086,2419,1584954940716417214,imu_link,-0.0246561188251,-0.224986031651,0.575659632683,0.785741329193,0.0,0.0,0.0,0.0,0.0,0.0,0.0,0.0,0.0,0.674528121948,-0.684863567352,-0.137239232659,0.01,0.0,0.0,0.0,0.01,0.0,0.0,0.0,0.01,-3.35676383972,1.80800950527,-9.49051380157,0.01,0.0,0.0,0.0,0.01,0.0,0.0,0.0,0.01
1584954940741615473,2420,1584954940741389382,imu_link,-0.0148554369807,-0.226034909487,0.57627004385,0.785239100456,0.0,0.0,0.0,0.0,0.0,0.0,0.0,0.0,0.0,0.50499111414,-0.413170427084,-0.114913076162,0.01,0.0,0.0,0.0,0.01,0.0,0.0,0.0,0.01,-3.83415722847,2.07117986679,-9.36895942688,0.01,0.0,0.0,0.0,0.01,0.0,0.0,0.0,0.01
1584954940766671331,2421,1584954940766390969,imu_link,-0.00720652984455,-0.226065129042,0.576190471649,0.7853962183,0.0,0.0,0.0,0.0,0.0,0.0,0.0,0.0,0.0,0.47978785634,-0.333507597446,-0.197177603841,0.01,0.0,0.0,0.0,0.01,0.0,0.0,0.0,0.01,-3.45692610741,3.23700475693,-8.78376102448,0.01,0.0,0.0,0.0,0.01,0.0,0.0,0.0,0.01
1584954940791636572,2422,1584954940791363626,imu_link,-0.000560052343644,-0.225670874119,0.57521635294,0.786256015301,0.0,0.0,0.0,0.0,0.0,0.0,0.0,0.0,0.0,0.386335968971,-0.239140108228,-0.232001841068,0.01,0.0,0.0,0.0,0.01,0.0,0.0,0.0,0.01,-3.50017237663,2.98093175888,-8.96687984467,0.01,0.0,0.0,0.0,0.01,0.0,0.0,0.0,0.01
1584954940816627673,2423,1584954940816353055,imu_link,0.00519230542704,-0.225723728538,0.573668539524,0.787353873253,0.0,0.0,0.0,0.0,0.0,0.0,0.0,0.0,0.0,0.30252918601,-0.253795892,-0.241772934794,0.01,0.0,0.0,0.0,0.01,0.0,0.0,0.0,0.01,-3.52911043167,2.30678224564,-8.79503822327,0.01,0.0,0.0,0.0,0.01,0.0,0.0,0.0,0.01
1584954940841623236,2424,1584954940841346039,imu_link,0.0102841379121,-0.226316586137,0.572103857994,0.788271725178,0.0,0.0,0.0,0.0,0.0,0.0,0.0,0.0,0.0,0.222574830055,-0.212563171983,-0.221558466554,0.01,0.0,0.0,0.0,0.01,0.0,0.0,0.0,0.01,-3.56807661057,2.13405036926,-8.68377876282,0.01,0.0,0.0,0.0,0.01,0.0,0.0,0.0,0.01
1584954940866662246,2425,1584954940866366326,imu_link,0.0142726171762,-0.227109655738,0.570473492146,0.789162576199,0.0,0.0,0.0,0.0,0.0,0.0,0.0,0.0,0.0,0.162894934416,-0.219419896603,-0.211675420403,0.01,0.0,0.0,0.0,0.01,0.0,0.0,0.0,0.01,-3.48087716103,2.14225625992,-8.64593505859,0.01,0.0,0.0,0.0,0.01,0.0,0.0,0.0,0.01
1584954940891635218,2426,1584954940891318222,imu_link,0.0182038638741,-0.228325903416,0.568685948849,0.790020465851,0.0,0.0,0.0,0.0,0.0,0.0,0.0,0.0,0.0,0.160697460175,-0.266926258802,-0.23373247683,0.01,0.0,0.0,0.0,0.01,0.0,0.0,0.0,0.01,-3.32430553436,2.29550647736,-8.43952560425,0.01,0.0,0.0,0.0,0.01,0.0,0.0,0.0,0.01
1584954940916595057,2427,1584954940916321858,imu_link,0.0223228596151,-0.23006555438,0.566363275051,0.791077911854,0.0,0.0,0.0,0.0,0.0,0.0,0.0,0.0,0.0,0.124261938035,-0.287603080273,-0.295284926891,0.01,0.0,0.0,0.0,0.01,0.0,0.0,0.0,0.01,-3.53677773476,2.18797826767,-8.56403255463,0.01,0.0,0.0,0.0,0.01,0.0,0.0,0.0,0.01
1584954940941658838,2428,1584954940941335423,imu_link,0.0268353391439,-0.232583671808,0.56338518858,0.79232686758,0.0,0.0,0.0,0.0,0.0,0.0,0.0,0.0,0.0,0.115800797939,-0.388000845909,-0.336166292429,0.01,0.0,0.0,0.0,0.01,0.0,0.0,0.0,0.01,-3.6202352047,2.0266418457,-8.38832855225,0.01,0.0,0.0,0.0,0.01,0.0,0.0,0.0,0.01
1584954940966709171,2429,1584954940966337010,imu_link,0.0314959362149,-0.235843345523,0.560305774212,0.793374598026,0.0,0.0,0.0,0.0,0.0,0.0,0.0,0.0,0.0,0.0825256407261,-0.422286510468,-0.325401067734,0.01,0.0,0.0,0.0,0.01,0.0,0.0,0.0,0.01,-3.72213625908,1.8456915617,-8.60407829285,0.01,0.0,0.0,0.0,0.01,0.0,0.0,0.0,0.01
1584954940991636786,2430,1584954940991297523,imu_link,0.0361229479313,-0.23995423317,0.557338356972,0.794034600258,0.0,0.0,0.0,0.0,0.0,0.0,0.0,0.0,0.0,0.0574478916824,-0.522138118744,-0.271953731775,0.01,0.0,0.0,0.0,0.01,0.0,0.0,0.0,0.01,-4.07981777191,1.71889066696,-8.42226600647,0.01,0.0,0.0,0.0,0.01,0.0,0.0,0.0,0.01
1584954941016358517,2431,1584954941016137954,imu_link,0.0419481135905,-0.245648175478,0.554780125618,0.793798744678,0.0,0.0,0.0,0.0,0.0,0.0,0.0,0.0,0.0,0.0784076824784,-0.737174808979,-0.2374368608,0.01,0.0,0.0,0.0,0.01,0.0,0.0,0.0,0.01,-3.90564608574,1.77911019325,-8.45208835602,0.01,0.0,0.0,0.0,0.01,0.0,0.0,0.0,0.01
1584954941041321449,2432,1584954941041110650,imu_link,0.0510597117245,-0.254808932543,0.551557481289,0.792622089386,0.0,0.0,0.0,0.0,0.0,0.0,0.0,0.0,0.0,0.102869994938,-1.20641791821,-0.306661456823,0.01,0.0,0.0,0.0,0.01,0.0,0.0,0.0,0.01,-3.8757686615,1.95152318478,-8.25881671906,0.01,0.0,0.0,0.0,0.01,0.0,0.0,0.0,0.01
1584954941066356606,2433,1584954941066121934,imu_link,0.0657619014382,-0.268963873386,0.546702384949,0.790221691132,0.0,0.0,0.0,0.0,0.0,0.0,0.0,0.0,0.0,0.27324461937,-1.86464202404,-0.471168220043,0.01,0.0,0.0,0.0,0.01,0.0,0.0,0.0,0.01,-4.07627010345,1.63168072701,-8.76316642761,0.01,0.0,0.0,0.0,0.01,0.0,0.0,0.0,0.01
1584954941091435249,2434,1584954941091176441,imu_link,0.0855867043138,-0.288407027721,0.54004240036,0.786034762859,0.0,0.0,0.0,0.0,0.0,0.0,0.0,0.0,0.0,0.259805798531,-2.46480321884,-0.569210588932,0.01,0.0,0.0,0.0,0.01,0.0,0.0,0.0,0.01,-4.59649467468,1.90315496922,-8.92473125458,0.01,0.0,0.0,0.0,0.01,0.0,0.0,0.0,0.01
1584954941117112035,2435,1584954941116422627,imu_link,0.109081164002,-0.31698602438,0.529987692833,0.778931498528,0.0,0.0,0.0,0.0,0.0,0.0,0.0,0.0,0.0,-0.0362539216876,-3.67240285873,-0.788831949234,0.01,0.0,0.0,0.0,0.01,0.0,0.0,0.0,0.01,-4.76021575928,2.53952908516,-8.50786209106,0.01,0.0,0.0,0.0,0.01,0.0,0.0,0.0,0.01
1584954941141659907,2436,1584954941141257106,imu_link,0.145206212997,-0.365103423595,0.512463212013,0.76354187727,0.0,0.0,0.0,0.0,0.0,0.0,0.0,0.0,0.0,-0.0640392675996,-6.19068384171,-0.969195365906,0.01,0.0,0.0,0.0,0.01,0.0,0.0,0.0,0.01,-3.38609409332,1.11955416203,-9.3597946167,0.01,0.0,0.0,0.0,0.01,0.0,0.0,0.0,0.01
1584954941166905524,2437,1584954941166447476,imu_link,0.189651399851,-0.442455083132,0.480889827013,0.73281031847,0.0,0.0,0.0,0.0,0.0,0.0,0.0,0.0,0.0,-1.8005797863,-9.14446926117,-0.907687306404,0.01,0.0,0.0,0.0,0.01,0.0,0.0,0.0,0.01,-8.50841903687,0.0444751679897,-19.5893974304,0.01,0.0,0.0,0.0,0.01,0.0,0.0,0.0,0.01
1584954941191680886,2438,1584954941191241119,imu_link,0.233580976725,-0.538424551487,0.437336951494,0.681377530098,0.0,0.0,0.0,0.0,0.0,0.0,0.0,0.0,0.0,-2.07976555824,-9.86313533783,-1.02796339989,0.01,0.0,0.0,0.0,0.01,0.0,0.0,0.0,0.01,-10.6515169144,6.97876930237,-24.6053199768,0.01,0.0,0.0,0.0,0.01,0.0,0.0,0.0,0.01
1584954941217087342,2439,1584954941216343511,imu_link,0.277231961489,-0.618267774582,0.38571819663,0.626186072826,0.0,0.0,0.0,0.0,0.0,0.0,0.0,0.0,0.0,-1.00176668167,-7.83465480804,-1.6759531498,0.01,0.0,0.0,0.0,0.01,0.0,0.0,0.0,0.01,-7.29437208176,8.1933555603,-32.909866333,0.01,0.0,0.0,0.0,0.01,0.0,0.0,0.0,0.01
1584954941241581177,2440,1584954941241208903,imu_link,0.32039731741,-0.63908290863,0.35870334506,0.600208759308,0.0,0.0,0.0,0.0,0.0,0.0,0.0,0.0,0.0,1.18980491161,-0.560582101345,-1.40978288651,0.01,0.0,0.0,0.0,0.01,0.0,0.0,0.0,0.01,-17.405626297,13.0597763062,-40.1476554871,0.01,0.0,0.0,0.0,0.01,0.0,0.0,0.0,0.01
1584954941266205194,2441,1584954941265998666,imu_link,0.320143342018,-0.617784202099,0.367322593927,0.617191314697,0.0,0.0,0.0,0.0,0.0,0.0,0.0,0.0,0.0,0.687426686287,2.37329816818,-0.21589282155,0.01,0.0,0.0,0.0,0.01,0.0,0.0,0.0,0.01,7.04399013519,8.70538711548,-7.02288150787,0.01,0.0,0.0,0.0,0.01,0.0,0.0,0.0,0.01
1584954941291280076,2442,1584954941290999677,imu_link,0.322885930538,-0.594033539295,0.384341537952,0.628610014915,0.0,0.0,0.0,0.0,0.0,0.0,0.0,0.0,0.0,1.45072948933,1.85290384293,-0.0120114851743,0.01,0.0,0.0,0.0,0.01,0.0,0.0,0.0,0.01,5.04584980011,4.98127651215,-3.48152565956,0.01,0.0,0.0,0.0,0.01,0.0,0.0,0.0,0.01
1584954941316144884,2443,1584954941315963154,imu_link,0.314976483583,-0.572785556316,0.405327707529,0.639074325562,0.0,0.0,0.0,0.0,0.0,0.0,0.0,0.0,0.0,0.695413410664,2.83518862724,0.96741938591,0.01,0.0,0.0,0.0,0.01,0.0,0.0,0.0,0.01,0.0139418318868,6.09264230728,-9.90767288208,0.01,0.0,0.0,0.0,0.01,0.0,0.0,0.0,0.01
