%time,field.header.seq,field.header.stamp,field.header.frame_id,field.orientation.x,field.orientation.y,field.orientation.z,field.orientation.w,field.orientation_covariance0,field.orientation_covariance1,field.orientation_covariance2,field.orientation_covariance3,field.orientation_covariance4,field.orientation_covariance5,field.orientation_covariance6,field.orientation_covariance7,field.orientation_covariance8,field.angular_velocity.x,field.angular_velocity.y,field.angular_velocity.z,field.angular_velocity_covariance0,field.angular_velocity_covariance1,field.angular_velocity_covariance2,field.angular_velocity_covariance3,field.angular_velocity_covariance4,field.angular_velocity_covariance5,field.angular_velocity_covariance6,field.angular_velocity_covariance7,field.angular_velocity_covariance8,field.linear_acceleration.x,field.linear_acceleration.y,field.linear_acceleration.z,field.linear_acceleration_covariance0,field.linear_acceleration_covariance1,field.linear_acceleration_covariance2,field.linear_acceleration_covariance3,field.linear_acceleration_covariance4,field.linear_acceleration_covariance5,field.linear_acceleration_covariance6,field.linear_acceleration_covariance7,field.linear_acceleration_covariance8
1585289618109809460,8236,1585289618109379429,waist_imu_link,-0.491608649492,0.620329976082,-0.472890883684,0.387151122093,2.10203874565e-05,0.0,0.0,0.0,1.88600516286e-05,0.0,0.0,0.0,4.47875133257e-05,-0.00281635555439,-0.00615241751075,-0.00317128002644,0.01,0.0,0.0,0.0,0.01,0.0,0.0,0.0,0.01,0.17279073596,9.50332832336,2.41506457329,0.01,0.0,0.0,0.0,0.01,0.0,0.0,0.0,0.01
1585289618135121964,8237,1585289618134571801,waist_imu_link,-0.491696357727,0.620281338692,-0.47286388278,0.38715043664,2.1068281769e-05,0.0,0.0,0.0,1.89021938284e-05,0.0,0.0,0.0,4.48265773021e-05,0.00262239156291,-0.00407645339146,-0.00604286044836,0.01,0.0,0.0,0.0,0.01,0.0,0.0,0.0,0.01,0.205830156803,9.5444021225,2.46430516243,0.01,0.0,0.0,0.0,0.01,0.0,0.0,0.0,0.01
1585289618160053829,8238,1585289618159459630,waist_imu_link,-0.491696119308,0.620261490345,-0.472872763872,0.387171685696,2.11058747e-05,0.0,0.0,0.0,1.89336384398e-05,0.0,0.0,0.0,4.48502603204e-05,-0.000593713717535,-0.000863520428538,0.00325819849968,0.01,0.0,0.0,0.0,0.01,0.0,0.0,0.0,0.01,0.15571731329,9.53503036499,2.45810675621,0.01,0.0,0.0,0.0,0.01,0.0,0.0,0.0,0.01
1585289618185264563,8239,1585289618184582882,waist_imu_link,-0.491692334414,0.620228052139,-0.472871989012,0.387231260538,2.11328391247e-05,0.0,0.0,0.0,1.89564274526e-05,0.0,0.0,0.0,4.4873398808e-05,-0.00111432000995,-0.00621218141168,-0.000555105507374,0.01,0.0,0.0,0.0,0.01,0.0,0.0,0.0,0.01,0.12926441431,9.48888969421,2.38073444366,0.01,0.0,0.0,0.0,0.01,0.0,0.0,0.0,0.01
1585289618209933940,8240,1585289618209370666,waist_imu_link,-0.491785258055,0.620165765285,-0.472833663225,0.387259751558,2.11579241061e-05,0.0,0.0,0.0,1.89815307204e-05,0.0,0.0,0.0,4.49215410038e-05,-0.00261409813538,-0.00936636328697,-0.00725490227342,0.01,0.0,0.0,0.0,0.01,0.0,0.0,0.0,0.01,0.168166741729,9.46545219421,2.46329832077,0.01,0.0,0.0,0.0,0.01,0.0,0.0,0.0,0.01
1585289618235415484,8241,1585289618234753901,waist_imu_link,-0.491895377636,0.620113611221,-0.472789078951,0.387257903814,2.11717933822e-05,0.0,0.0,0.0,1.89923217731e-05,0.0,0.0,0.0,4.49359832561e-05,-0.00667913816869,-0.00450161006302,-0.00546158850193,0.01,0.0,0.0,0.0,0.01,0.0,0.0,0.0,0.01,0.146482214332,9.50589179993,2.43990087509,0.01,0.0,0.0,0.0,0.01,0.0,0.0,0.0,0.01
1585289618260191675,8242,1585289618259556974,waist_imu_link,-0.491938591003,0.620123386383,-0.472753316164,0.387230992317,2.11740852872e-05,0.0,0.0,0.0,1.89901944464e-05,0.0,0.0,0.0,4.49267262356e-05,-0.00343336490914,-0.00130467186682,0.000900194048882,0.01,0.0,0.0,0.0,0.01,0.0,0.0,0.0,0.01,0.159289941192,9.55552005768,2.48293876648,0.01,0.0,0.0,0.0,0.01,0.0,0.0,0.0,0.01
1585289618285162820,8243,1585289618284483291,waist_imu_link,-0.491983413696,0.620080649853,-0.472720384598,0.387282550335,2.11620446587e-05,0.0,0.0,0.0,1.89765954037e-05,0.0,0.0,0.0,4.491781869e-05,0.00307236379012,-0.0110555589199,-0.00212126597762,0.01,0.0,0.0,0.0,0.01,0.0,0.0,0.0,0.01,0.150292783976,9.53907299042,2.4610888958,0.01,0.0,0.0,0.0,0.01,0.0,0.0,0.0,0.01
1585289618310173440,8244,1585289618309488036,waist_imu_link,-0.492064327002,0.619938194752,-0.472725182772,0.387402027845,2.11379979428e-05,0.0,0.0,0.0,1.89532090328e-05,0.0,0.0,0.0,4.4907427908e-05,0.00728529226035,-0.012906504795,-0.00729870423675,0.01,0.0,0.0,0.0,0.01,0.0,0.0,0.0,0.01,0.18388363719,9.46122264862,2.44623589516,0.01,0.0,0.0,0.0,0.01,0.0,0.0,0.0,0.01
1585289618335304117,8245,1585289618334617759,waist_imu_link,-0.492168992758,0.619824230671,-0.472687095404,0.387497782707,2.11005533354e-05,0.0,0.0,0.0,1.89214169784e-05,0.0,0.0,0.0,4.49117963439e-05,-0.000781927257776,-0.0134286396205,-0.00572867691517,0.01,0.0,0.0,0.0,0.01,0.0,0.0,0.0,0.01,0.166904360056,9.4911699295,2.42811870575,0.01,0.0,0.0,0.0,0.01,0.0,0.0,0.0,0.01
1585289618360259923,8246,1585289618359662002,waist_imu_link,-0.492299407721,0.619753718376,-0.472603261471,0.387547194958,2.10541788323e-05,0.0,0.0,0.0,1.88834501905e-05,0.0,0.0,0.0,4.49224350093e-05,-0.0082290796563,-0.0130288172513,-0.00158789381385,0.01,0.0,0.0,0.0,0.01,0.0,0.0,0.0,0.01,0.125128924847,9.49852561951,2.4062871933,0.01,0.0,0.0,0.0,0.01,0.0,0.0,0.0,0.01
1585289618385235539,8247,1585289618384556841,waist_imu_link,-0.492436259985,0.619733572006,-0.472473889589,0.387563347816,2.10111954546e-05,0.0,0.0,0.0,1.88454488616e-05,0.0,0.0,0.0,4.49142751773e-05,-0.0097988769412,-0.0135450419039,-0.00222146138549,0.01,0.0,0.0,0.0,0.01,0.0,0.0,0.0,0.01,0.0980287194252,9.5343837738,2.45458269119,0.01,0.0,0.0,0.0,0.01,0.0,0.0,0.0,0.01
1585289618410410803,8248,1585289618409444560,waist_imu_link,-0.492546081543,0.61973798275,-0.472357869148,0.387558102608,2.10074690772e-05,0.0,0.0,0.0,1.88387824252e-05,0.0,0.0,0.0,4.4903827504e-05,-0.0238987300545,-0.00904548261315,-0.00474564731121,0.01,0.0,0.0,0.0,0.01,0.0,0.0,0.0,0.01,0.153844758868,9.46827507019,2.43987798691,0.01,0.0,0.0,0.0,0.01,0.0,0.0,0.0,0.01
1585289618434448658,8249,1585289618434149549,waist_imu_link,-0.492656797171,0.619798541069,-0.472232490778,0.387473344803,2.10032245829e-05,0.0,0.0,0.0,1.88331948909e-05,0.0,0.0,0.0,4.49030513447e-05,-0.00409053545445,-0.00190862035379,-0.00176239013672,0.01,0.0,0.0,0.0,0.01,0.0,0.0,0.0,0.01,0.174167007208,9.52907180786,2.52360916138,0.01,0.0,0.0,0.0,0.01,0.0,0.0,0.0,0.01
1585289618458958370,8250,1585289618458777274,waist_imu_link,-0.492659151554,0.619729697704,-0.472263276577,0.387542814016,2.09860007543e-05,0.0,0.0,0.0,1.88166415664e-05,0.0,0.0,0.0,4.48982399697e-05,0.0127661097795,-0.00824017077684,0.000623241066933,0.01,0.0,0.0,0.0,0.01,0.0,0.0,0.0,0.01,0.142293572426,9.46883773804,2.46551084518,0.01,0.0,0.0,0.0,0.01,0.0,0.0,0.0,0.01
1585289618484386738,8251,1585289618484108537,waist_imu_link,-0.492737859488,0.619673669338,-0.472216367722,0.387589514256,2.09832191782e-05,0.0,0.0,0.0,1.88107411302e-05,0.0,0.0,0.0,4.48867804447e-05,-0.00629416620359,-0.0100584775209,-0.005595959723,0.01,0.0,0.0,0.0,0.01,0.0,0.0,0.0,0.01,0.157004743814,9.52098560333,2.4816532135,0.01,0.0,0.0,0.0,0.01,0.0,0.0,0.0,0.01
1585289618510091839,8252,1585289618509446697,waist_imu_link,-0.492797285318,0.619599878788,-0.472214609385,0.387634158134,2.09836682127e-05,0.0,0.0,0.0,1.88073134318e-05,0.0,0.0,0.0,4.48743375137e-05,0.00412424607202,-0.00382236437872,-0.00300527736545,0.01,0.0,0.0,0.0,0.01,0.0,0.0,0.0,0.01,0.140820205212,9.47629833221,2.4962952137,0.01,0.0,0.0,0.0,0.01,0.0,0.0,0.0,0.01
1585289618535049831,8253,1585289618534411572,waist_imu_link,-0.492835223675,0.61953908205,-0.472226440907,0.387668758631,2.09719161042e-05,0.0,0.0,0.0,1.87950980659e-05,0.0,0.0,0.0,4.48681323029e-05,0.00375044741668,-0.00516261067241,-0.00196377560496,0.01,0.0,0.0,0.0,0.01,0.0,0.0,0.0,0.01,0.130290880799,9.48312759399,2.53418111801,0.01,0.0,0.0,0.0,0.01,0.0,0.0,0.0,0.01
1585289618560248193,8254,1585289618559458546,waist_imu_link,-0.492922127247,0.619421720505,-0.47223302722,0.387737721205,2.09431047453e-05,0.0,0.0,0.0,1.8768854941e-05,0.0,0.0,0.0,4.48596880146e-05,0.00967368669808,-0.0125485928729,-0.00839307531714,0.01,0.0,0.0,0.0,0.01,0.0,0.0,0.0,0.01,0.146756336093,9.52025604248,2.5137720108,0.01,0.0,0.0,0.0,0.01,0.0,0.0,0.0,0.01
1585289618585359688,8255,1585289618584561993,waist_imu_link,-0.493044197559,0.619261682034,-0.472247689962,0.387820392847,2.09106482823e-05,0.0,0.0,0.0,1.87401553328e-05,0.0,0.0,0.0,4.48533690213e-05,-0.00101888307836,-0.011280592531,-0.00985630974174,0.01,0.0,0.0,0.0,0.01,0.0,0.0,0.0,0.01,0.0769634544849,9.49359893799,2.49050760269,0.01,0.0,0.0,0.0,0.01,0.0,0.0,0.0,0.01
1585289618610094489,8256,1585289618609454439,waist_imu_link,-0.493198364973,0.619087815285,-0.472294569016,0.387844771147,2.09189036103e-05,0.0,0.0,0.0,1.87440198748e-05,0.0,0.0,0.0,4.48461925954e-05,0.0213032532483,-0.00908568315208,-0.0210216604173,0.01,0.0,0.0,0.0,0.01,0.0,0.0,0.0,0.01,0.153316617012,9.64016532898,2.53387117386,0.01,0.0,0.0,0.0,0.01,0.0,0.0,0.0,0.01
1585289618634871098,8257,1585289618634201923,waist_imu_link,-0.493220359087,0.61853915453,-0.472692996264,0.388206541538,2.1030065066e-05,0.0,0.0,0.0,1.88306449434e-05,0.0,0.0,0.0,4.48401418036e-05,0.0513027533889,-0.0187116004527,-0.0214983485639,0.01,0.0,0.0,0.0,0.01,0.0,0.0,0.0,0.01,0.171134740114,9.41917800903,2.50650930405,0.01,0.0,0.0,0.0,0.01,0.0,0.0,0.0,0.01
1585289618660037067,8258,1585289618659133366,waist_imu_link,-0.493286341429,0.617989122868,-0.47311604023,0.388483345509,2.11367219531e-05,0.0,0.0,0.0,1.8912050239e-05,0.0,0.0,0.0,4.48254110313e-05,0.0609064213932,-0.018203612417,-0.022753816098,0.01,0.0,0.0,0.0,0.01,0.0,0.0,0.0,0.01,0.107275396585,9.528840065,2.42862844467,0.01,0.0,0.0,0.0,0.01,0.0,0.0,0.0,0.01
1585289618685172015,8259,1585289618684354521,waist_imu_link,-0.493373572826,0.617496788502,-0.473416388035,0.388789415359,2.12389169401e-05,0.0,0.0,0.0,1.89889895708e-05,0.0,0.0,0.0,4.48063809053e-05,0.0261571481824,-0.0223474670202,-0.0136569738388,0.01,0.0,0.0,0.0,0.01,0.0,0.0,0.0,0.01,0.152238756418,9.42909431458,2.41946434975,0.01,0.0,0.0,0.0,0.01,0.0,0.0,0.0,0.01
1585289618709899564,8260,1585289618709262378,waist_imu_link,-0.493570953608,0.61733007431,-0.473381906748,0.388845443726,2.13375176187e-05,0.0,0.0,0.0,1.90641551145e-05,0.0,0.0,0.0,4.47958478951e-05,0.00224188878201,-0.0157056991011,-0.011617410928,0.01,0.0,0.0,0.0,0.01,0.0,0.0,0.0,0.01,0.142456009984,9.61087417603,2.44710755348,0.01,0.0,0.0,0.0,0.01,0.0,0.0,0.0,0.01
1585289618734889436,8261,1585289618734095800,waist_imu_link,-0.493662297726,0.616908609867,-0.47365424037,0.389066964388,2.14322822009e-05,0.0,0.0,0.0,1.91375671882e-05,0.0,0.0,0.0,4.47949416986e-05,0.0554775781929,-0.0206594280899,-0.0272029414773,0.01,0.0,0.0,0.0,0.01,0.0,0.0,0.0,0.01,0.150234058499,9.60055446625,2.52391052246,0.01,0.0,0.0,0.0,0.01,0.0,0.0,0.0,0.01
1585289618759949090,8262,1585289618759001604,waist_imu_link,-0.493644714355,0.61635184288,-0.47404897213,0.389490485191,2.15228571483e-05,0.0,0.0,0.0,1.92091567099e-05,0.0,0.0,0.0,4.48047879501e-05,0.0515504777431,-0.0248578079045,-0.00975821912289,0.01,0.0,0.0,0.0,0.01,0.0,0.0,0.0,0.01,0.110186934471,9.51208591461,2.42494368553,0.01,0.0,0.0,0.0,0.01,0.0,0.0,0.0,0.01
1585289618784499210,8263,1585289618783889913,waist_imu_link,-0.493663579226,0.615990757942,-0.474193364382,0.389862060547,2.16073508265e-05,0.0,0.0,0.0,1.92759206338e-05,0.0,0.0,0.0,4.48161580745e-05,0.0276883039623,-0.0253150127828,-0.0113176517189,0.01,0.0,0.0,0.0,0.01,0.0,0.0,0.0,0.01,0.174276888371,9.50333404541,2.34379720688,0.01,0.0,0.0,0.0,0.01,0.0,0.0,0.0,0.01
1585289618809639039,8264,1585289618808886540,waist_imu_link,-0.493796497583,0.615505158901,-0.474380731583,0.390232503414,2.16855742753e-05,0.0,0.0,0.0,1.93361583175e-05,0.0,0.0,0.0,4.48187506904e-05,0.0424366444349,-0.0359915494919,-0.023454722017,0.01,0.0,0.0,0.0,0.01,0.0,0.0,0.0,0.01,0.207664325833,9.48630809784,2.37619423866,0.01,0.0,0.0,0.0,0.01,0.0,0.0,0.0,0.01
1585289618834667460,8265,1585289618833982323,waist_imu_link,-0.494029194117,0.615045070648,-0.47446718812,0.390558153391,2.17569910914e-05,0.0,0.0,0.0,1.93914952257e-05,0.0,0.0,0.0,4.48252647395e-05,0.00775048416108,-0.0306296534836,-0.0129736103117,0.01,0.0,0.0,0.0,0.01,0.0,0.0,0.0,0.01,0.177814289927,9.48258972168,2.37734770775,0.01,0.0,0.0,0.0,0.01,0.0,0.0,0.0,0.01
1585289618859540755,8266,1585289618858877569,waist_imu_link,-0.494291096926,0.61487197876,-0.474281668663,0.390724539757,2.1820745874e-05,0.0,0.0,0.0,1.94445117832e-05,0.0,0.0,0.0,4.48553033241e-05,-0.00513370707631,-0.028851730749,-0.0086810477078,0.01,0.0,0.0,0.0,0.01,0.0,0.0,0.0,0.01,0.136904016137,9.57616043091,2.29317593575,0.01,0.0,0.0,0.0,0.01,0.0,0.0,0.0,0.01
1585289618884681779,8267,1585289618884064104,waist_imu_link,-0.49455460906,0.61474531889,-0.474104911089,0.39080503583,2.18747499013e-05,0.0,0.0,0.0,1.94887691188e-05,0.0,0.0,0.0,4.48796690374e-05,-0.0150129729882,-0.0280953496695,-0.00979030504823,0.01,0.0,0.0,0.0,0.01,0.0,0.0,0.0,0.01,0.0885998681188,9.56356811523,2.35465955734,0.01,0.0,0.0,0.0,0.01,0.0,0.0,0.0,0.01
1585289618910420369,8268,1585289618909738118,waist_imu_link,-0.494729578495,0.614762842655,-0.473885715008,0.390821933746,2.19191697833e-05,0.0,0.0,0.0,1.95214003193e-05,0.0,0.0,0.0,4.48803639235e-05,-0.0223554018885,-0.00399769097567,0.0086075514555,0.01,0.0,0.0,0.0,0.01,0.0,0.0,0.0,0.01,0.117927603424,9.49326038361,2.39390397072,0.01,0.0,0.0,0.0,0.01,0.0,0.0,0.0,0.01
1585289618934457841,8269,1585289618933737957,waist_imu_link,-0.494796156883,0.614900708199,-0.47362819314,0.390832781792,2.1951750188e-05,0.0,0.0,0.0,1.9546265863e-05,0.0,0.0,0.0,4.48907872148e-05,-0.0168772041798,-0.00790856219828,0.0109414122999,0.01,0.0,0.0,0.0,0.01,0.0,0.0,0.0,0.01,0.0934944748878,9.51811695099,2.38199973106,0.01,0.0,0.0,0.0,0.01,0.0,0.0,0.0,0.01
1585289618960325299,8270,1585289618959492496,waist_imu_link,-0.494856864214,0.615015923977,-0.473336368799,0.390928179026,2.19740251476e-05,0.0,0.0,0.0,1.95632580628e-05,0.0,0.0,0.0,4.49032138912e-05,-0.0290774554014,-0.0159297212958,0.0139649603516,0.01,0.0,0.0,0.0,0.01,0.0,0.0,0.0,0.01,0.1382612288,9.46800613403,2.33135652542,0.01,0.0,0.0,0.0,0.01,0.0,0.0,0.0,0.01
1585289618984680685,8271,1585289618984414364,waist_imu_link,-0.494952499866,0.615523695946,-0.472721844912,0.390751451254,2.19890363126e-05,0.0,0.0,0.0,1.9572890972e-05,0.0,0.0,0.0,4.49058065071e-05,-0.0788289755583,0.00417644483969,0.0200902745128,0.01,0.0,0.0,0.0,0.01,0.0,0.0,0.0,0.01,0.0858425050974,9.5401058197,2.40764808655,0.01,0.0,0.0,0.0,0.01,0.0,0.0,0.0,0.01
1585289619009925437,8272,1585289619009449838,waist_imu_link,-0.495012938976,0.616016924381,-0.472305595875,0.390400975943,2.19963854441e-05,0.0,0.0,0.0,1.9577462591e-05,0.0,0.0,0.0,4.4914518997e-05,-0.0444814451039,0.0217889863998,0.0175009723753,0.01,0.0,0.0,0.0,0.01,0.0,0.0,0.0,0.01,0.0282024461776,9.50975227356,2.51414632797,0.01,0.0,0.0,0.0,0.01,0.0,0.0,0.0,0.01
1585289619035736485,8273,1585289619035090413,waist_imu_link,-0.494945257902,0.616754889488,-0.47180634737,0.389924824238,2.2102469355e-05,0.0,0.0,0.0,1.96595871547e-05,0.0,0.0,0.0,4.49194482182e-05,-0.0642553195357,0.029978306964,0.0371511131525,0.01,0.0,0.0,0.0,0.01,0.0,0.0,0.0,0.01,0.120901592076,9.59538936615,2.50357484818,0.01,0.0,0.0,0.0,0.01,0.0,0.0,0.0,0.01
1585289619060475558,8274,1585289619059694127,waist_imu_link,-0.494806230068,0.617470026016,-0.471325814724,0.389550477266,2.22038211322e-05,0.0,0.0,0.0,1.97398424341e-05,0.0,0.0,0.0,4.49368935163e-05,-0.0904083475471,0.0490386076272,0.0586621649563,0.01,0.0,0.0,0.0,0.01,0.0,0.0,0.0,0.01,0.0505930706859,9.24906158447,2.44902992249,0.01,0.0,0.0,0.0,0.01,0.0,0.0,0.0,0.01
1585289619085485113,8275,1585289619084683786,waist_imu_link,-0.494850069284,0.617684900761,-0.471109420061,0.389415979385,2.23128593249e-05,0.0,0.0,0.0,1.98270750201e-05,0.0,0.0,0.0,4.49608813091e-05,-0.0159130431712,-0.00164315733127,0.0219780951738,0.01,0.0,0.0,0.0,0.01,0.0,0.0,0.0,0.01,0.195935726166,9.42210006714,2.44910979271,0.01,0.0,0.0,0.0,0.01,0.0,0.0,0.0,0.01
1585289619110496656,8276,1585289619109783639,waist_imu_link,-0.494817972183,0.618352472782,-0.470598816872,0.3890145123,2.24353685549e-05,0.0,0.0,0.0,1.99226076344e-05,0.0,0.0,0.0,4.49727959641e-05,-0.077802233398,0.0266454275697,0.0173236578703,0.01,0.0,0.0,0.0,0.01,0.0,0.0,0.0,0.01,0.183890223503,9.56210517883,2.43338179588,0.01,0.0,0.0,0.0,0.01,0.0,0.0,0.0,0.01
1585289619135385264,8277,1585289619134766939,waist_imu_link,-0.494806349277,0.618608593941,-0.470535993576,0.388697773218,2.25591029788e-05,0.0,0.0,0.0,2.00158178661e-05,0.0,0.0,0.0,4.4966521671e-05,-0.00856384634972,0.0219444986433,-0.000590961426497,0.01,0.0,0.0,0.0,0.01,0.0,0.0,0.0,0.01,0.185598269105,9.46482181549,2.5353782177,0.01,0.0,0.0,0.0,0.01,0.0,0.0,0.0,0.01
1585289619160454256,8278,1585289619159792503,waist_imu_link,-0.494804382324,0.618885219097,-0.470378786325,0.388450205326,2.26798749935e-05,0.0,0.0,0.0,2.01053647072e-05,0.0,0.0,0.0,4.4954115313e-05,-0.0266260169446,0.00292792986147,0.00227753445506,0.01,0.0,0.0,0.0,0.01,0.0,0.0,0.0,0.01,0.163730934262,9.59466075897,2.48585486412,0.01,0.0,0.0,0.0,0.01,0.0,0.0,0.0,0.01
1585289619185707924,8279,1585289619184868724,waist_imu_link,-0.494786918163,0.618979275227,-0.470329642296,0.388382017612,2.27973005832e-05,0.0,0.0,0.0,2.01937859141e-05,0.0,0.0,0.0,4.49520428457e-05,-0.00669315829873,0.00752297742292,0.00194105505943,0.01,0.0,0.0,0.0,0.01,0.0,0.0,0.0,0.01,0.144086241722,9.460521698,2.563539505,0.01,0.0,0.0,0.0,0.01,0.0,0.0,0.0,0.01
1585289619210348394,8280,1585289619209589927,waist_imu_link,-0.494768798351,0.619061768055,-0.470322936773,0.388281792402,2.2910680798e-05,0.0,0.0,0.0,2.02806263568e-05,0.0,0.0,0.0,4.49607675266e-05,-0.00794709008187,0.00781731680036,0.000168982893229,0.01,0.0,0.0,0.0,0.01,0.0,0.0,0.0,0.01,0.15656748414,9.4994058609,2.59085249901,0.01,0.0,0.0,0.0,0.01,0.0,0.0,0.0,0.01
1585289619235237328,8281,1585289619234570916,waist_imu_link,-0.494717121124,0.619130134583,-0.470372408628,0.388178676367,2.30187416801e-05,0.0,0.0,0.0,2.03602680234e-05,0.0,0.0,0.0,4.49533432173e-05,0.00362874241546,0.00916559714824,-0.0017529129982,0.01,0.0,0.0,0.0,0.01,0.0,0.0,0.0,0.01,0.127106130123,9.50181007385,2.55424928665,0.01,0.0,0.0,0.0,0.01,0.0,0.0,0.0,0.01
1585289619260366596,8282,1585289619259580748,waist_imu_link,-0.494678467512,0.619121849537,-0.47044634819,0.388151496649,2.31215076115e-05,0.0,0.0,0.0,2.04337593386e-05,0.0,0.0,0.0,4.49362473941e-05,0.000974624417722,0.0025675825309,-5.34169375896e-05,0.01,0.0,0.0,0.0,0.01,0.0,0.0,0.0,0.01,0.181579947472,9.48113441467,2.58686590195,0.01,0.0,0.0,0.0,0.01,0.0,0.0,0.0,0.01
1585289619284993863,8283,1585289619284382148,waist_imu_link,-0.494629949331,0.619145095348,-0.47046855092,0.388149470091,2.32179545496e-05,0.0,0.0,0.0,2.05018033157e-05,0.0,0.0,0.0,4.49177577351e-05,0.00293139670976,0.00289351632819,0.0028150267899,0.01,0.0,0.0,0.0,0.01,0.0,0.0,0.0,0.01,0.186956018209,9.46326255798,2.55599832535,0.01,0.0,0.0,0.0,0.01,0.0,0.0,0.0,0.01
1585289619310358090,8284,1585289619309713425,waist_imu_link,-0.494647622108,0.619135320187,-0.470449209213,0.388165891171,2.33083506959e-05,0.0,0.0,0.0,2.05691564705e-05,0.0,0.0,0.0,4.49225569191e-05,-0.00188454054296,-0.00719018373638,-0.00662281736732,0.01,0.0,0.0,0.0,0.01,0.0,0.0,0.0,0.01,0.205603539944,9.50608444214,2.52111721039,0.01,0.0,0.0,0.0,0.01,0.0,0.0,0.0,0.01
1585289619335235735,8285,1585289619334634136,waist_imu_link,-0.494778901339,0.619068682194,-0.470391064882,0.388175368309,2.33911396682e-05,0.0,0.0,0.0,2.06288130506e-05,0.0,0.0,0.0,4.49186883135e-05,-0.00637302640826,-0.0101593034342,-0.008400272578,0.01,0.0,0.0,0.0,0.01,0.0,0.0,0.0,0.01,0.19350515306,9.50643062592,2.48825192451,0.01,0.0,0.0,0.0,0.01,0.0,0.0,0.0,0.01
1585289619360343894,8286,1585289619359577271,waist_imu_link,-0.494921803474,0.619030058384,-0.470314085484,0.388148099184,2.3466339753e-05,0.0,0.0,0.0,2.06854686169e-05,0.0,0.0,0.0,4.49313222366e-05,-0.0101095633581,-0.00767646823078,-0.00468502938747,0.01,0.0,0.0,0.0,0.01,0.0,0.0,0.0,0.01,0.11342613399,9.48954772949,2.47860860825,0.01,0.0,0.0,0.0,0.01,0.0,0.0,0.0,0.01
1585289619385250703,8287,1585289619384583022,waist_imu_link,-0.49505802989,0.618971407413,-0.470243513584,0.388153344393,2.35320857296e-05,0.0,0.0,0.0,2.07312132525e-05,0.0,0.0,0.0,4.49253730364e-05,0.000430485000834,-0.014448877424,-0.0111911147833,0.01,0.0,0.0,0.0,0.01,0.0,0.0,0.0,0.01,0.152061164379,9.46294116974,2.53881669044,0.01,0.0,0.0,0.0,0.01,0.0,0.0,0.0,0.01
1585289619410273621,8288,1585289619409614496,waist_imu_link,-0.495238929987,0.618718028069,-0.470307797194,0.388248592615,2.35884669988e-05,0.0,0.0,0.0,2.07684912498e-05,0.0,0.0,0.0,4.4912995124e-05,0.0113505180925,-0.0174780283123,-0.0189151056111,0.01,0.0,0.0,0.0,0.01,0.0,0.0,0.0,0.01,0.0965358018875,9.49331092834,2.53915762901,0.01,0.0,0.0,0.0,0.01,0.0,0.0,0.0,0.01
1585289619435957358,8289,1585289619434539858,waist_imu_link,-0.495422512293,0.618499696255,-0.470351308584,0.388309657574,2.36340328333e-05,0.0,0.0,0.0,2.07983043011e-05,0.0,0.0,0.0,4.49063388467e-05,0.00759387807921,-0.0151599291712,-0.0155222080648,0.01,0.0,0.0,0.0,0.01,0.0,0.0,0.0,0.01,0.150171607733,9.53882789612,2.46882557869,0.01,0.0,0.0,0.0,0.01,0.0,0.0,0.0,0.01
1585289619459261893,8290,1585289619458854296,waist_imu_link,-0.495541900396,0.618292748928,-0.470413178205,0.388411968946,2.36691367717e-05,0.0,0.0,0.0,2.08208718443e-05,0.0,0.0,0.0,4.49039453502e-05,0.0102704754099,-0.0141196455806,-0.0119110830128,0.01,0.0,0.0,0.0,0.01,0.0,0.0,0.0,0.01,0.179287940264,9.49191856384,2.5142121315,0.01,0.0,0.0,0.0,0.01,0.0,0.0,0.0,0.01
1585289619484029929,8291,1585289619483758907,waist_imu_link,-0.495648086071,0.618147194386,-0.470426470041,0.38849195838,2.36913182671e-05,0.0,0.0,0.0,2.08316669606e-05,0.0,0.0,0.0,4.48922135599e-05,0.00627998821437,-0.0124668870121,-0.00933957844973,0.01,0.0,0.0,0.0,0.01,0.0,0.0,0.0,0.01,0.171055197716,9.50743675232,2.4981315136,0.01,0.0,0.0,0.0,0.01,0.0,0.0,0.0,0.01
1585289619508916723,8292,1585289619508730185,waist_imu_link,-0.495702266693,0.618073105812,-0.470427274704,0.388539791107,2.37008150436e-05,0.0,0.0,0.0,2.08326422394e-05,0.0,0.0,0.0,4.4880453324e-05,-0.0029384791851,-0.00407295767218,-0.00122574716806,0.01,0.0,0.0,0.0,0.01,0.0,0.0,0.0,0.01,0.120479799807,9.49043655396,2.49240756035,0.01,0.0,0.0,0.0,0.01,0.0,0.0,0.0,0.01
1585289619534047807,8293,1585289619533841316,waist_imu_link,-0.495791435242,0.618089139462,-0.470336198807,0.388510644436,2.36960768145e-05,0.0,0.0,0.0,2.08218918233e-05,0.0,0.0,0.0,4.48643815435e-05,-0.00674377009273,-0.00871247239411,-0.00328795611858,0.01,0.0,0.0,0.0,0.01,0.0,0.0,0.0,0.01,0.119458116591,9.5434513092,2.54223489761,0.01,0.0,0.0,0.0,0.01,0.0,0.0,0.0,0.01
1585289619559140566,8294,1585289619558793919,waist_imu_link,-0.495836287737,0.618071138859,-0.47028875351,0.388539612293,2.36792796704e-05,0.0,0.0,0.0,2.08041092413e-05,0.0,0.0,0.0,4.48596514417e-05,-0.0017902883701,-0.00586179411039,0.00133338943124,0.01,0.0,0.0,0.0,0.01,0.0,0.0,0.0,0.01,0.152961671352,9.51993560791,2.4952082634,0.01,0.0,0.0,0.0,0.01,0.0,0.0,0.0,0.01
1585289619584586376,8295,1585289619584121612,waist_imu_link,-0.495840400457,0.618069350719,-0.470267027617,0.388563483953,2.36455492495e-05,0.0,0.0,0.0,2.07711326296e-05,0.0,0.0,0.0,4.48432708229e-05,-0.00333588104695,-0.00104565918446,0.00117006897926,0.01,0.0,0.0,0.0,0.01,0.0,0.0,0.0,0.01,0.106411129236,9.46634578705,2.49844837189,0.01,0.0,0.0,0.0,0.01,0.0,0.0,0.0,0.01
1585289619609863016,8296,1585289619609164004,waist_imu_link,-0.495876133442,0.618142724037,-0.470175743103,0.388511538506,2.3595123276e-05,0.0,0.0,0.0,2.07272024188e-05,0.0,0.0,0.0,4.48359359142e-05,-0.0136561300606,-0.00441787112504,0.00120710581541,0.01,0.0,0.0,0.0,0.01,0.0,0.0,0.0,0.01,0.140982702374,9.51084518433,2.52523422241,0.01,0.0,0.0,0.0,0.01,0.0,0.0,0.0,0.01
1585289619635040486,8297,1585289619634382359,waist_imu_link,-0.495927542448,0.6181858778,-0.470072180033,0.388502627611,2.3532429109e-05,0.0,0.0,0.0,2.06748990338e-05,0.0,0.0,0.0,4.48341885398e-05,-0.00701005710289,-0.00446324981749,0.0057799257338,0.01,0.0,0.0,0.0,0.01,0.0,0.0,0.0,0.01,0.137319937348,9.4996919632,2.52575111389,0.01,0.0,0.0,0.0,0.01,0.0,0.0,0.0,0.01
1585289619659742401,8298,1585289619659098860,waist_imu_link,-0.495939433575,0.618275284767,-0.469945281744,0.388498783112,2.34539862225e-05,0.0,0.0,0.0,2.06123552223e-05,0.0,0.0,0.0,4.48424946635e-05,-0.0076412553899,-0.00130718154833,0.00672890990973,0.01,0.0,0.0,0.0,0.01,0.0,0.0,0.0,0.01,0.152951344848,9.48165130615,2.55455422401,0.01,0.0,0.0,0.0,0.01,0.0,0.0,0.0,0.01
1585289619684938131,8299,1585289619684151708,waist_imu_link,-0.495941460133,0.618328213692,-0.46986284852,0.388511627913,2.33540932997e-05,0.0,0.0,0.0,2.05364419649e-05,0.0,0.0,0.0,4.48673398889e-05,-0.00486756488681,-0.00653866585344,0.002128187567,0.01,0.0,0.0,0.0,0.01,0.0,0.0,0.0,0.01,0.137718573213,9.46823787689,2.54115366936,0.01,0.0,0.0,0.0,0.01,0.0,0.0,0.0,0.01
1585289619709615595,8300,1585289619709064546,waist_imu_link,-0.496045589447,0.618326425552,-0.469723135233,0.388550430536,2.32349264311e-05,0.0,0.0,0.0,2.04407813454e-05,0.0,0.0,0.0,4.48653893315e-05,-0.00900064315647,-0.0150788035244,-0.00312879309058,0.01,0.0,0.0,0.0,0.01,0.0,0.0,0.0,0.01,0.143068701029,9.55095863342,2.53689527512,0.01,0.0,0.0,0.0,0.01,0.0,0.0,0.0,0.01
1585289619734564069,8301,1585289619734021974,waist_imu_link,-0.496115922928,0.618289768696,-0.46963980794,0.388619661331,2.3160606129e-05,0.0,0.0,0.0,2.03794546004e-05,0.0,0.0,0.0,4.48599033887e-05,0.00301110139117,-0.00939814653248,0.000895127654076,0.01,0.0,0.0,0.0,0.01,0.0,0.0,0.0,0.01,0.164484471083,9.51679039001,2.60916662216,0.01,0.0,0.0,0.0,0.01,0.0,0.0,0.0,0.01
1585289619759646332,8302,1585289619758987683,waist_imu_link,-0.496120691299,0.618233084679,-0.469624131918,0.38872268796,2.31242952832e-05,0.0,0.0,0.0,2.03464576704e-05,0.0,0.0,0.0,4.48475254763e-05,0.00824543181807,-0.00932971574366,0.000205993652344,0.01,0.0,0.0,0.0,0.01,0.0,0.0,0.0,0.01,0.138939857483,9.4336643219,2.58218741417,0.01,0.0,0.0,0.0,0.01,0.0,0.0,0.0,0.01
1585289619784661745,8303,1585289619784035689,waist_imu_link,-0.496150702238,0.618156552315,-0.469606101513,0.388827890158,2.30553593324e-05,0.0,0.0,0.0,2.02884509367e-05,0.0,0.0,0.0,4.48360618877e-05,0.00505590671673,-0.0113619407639,-4.94420528412e-05,0.01,0.0,0.0,0.0,0.01,0.0,0.0,0.0,0.01,0.127671316266,9.45471477509,2.48680257797,0.01,0.0,0.0,0.0,0.01,0.0,0.0,0.0,0.01
1585289619810421638,8304,1585289619809387744,waist_imu_link,-0.496214479208,0.61807924509,-0.469577401876,0.388904035091,2.29705121156e-05,0.0,0.0,0.0,2.0218385288e-05,0.0,0.0,0.0,4.48256873603e-05,-9.89168183878e-05,-0.00815797876567,-0.00242244824767,0.01,0.0,0.0,0.0,0.01,0.0,0.0,0.0,0.01,0.125070780516,9.52638626099,2.48336720467,0.01,0.0,0.0,0.0,0.01,0.0,0.0,0.0,0.01
1585289619834564785,8305,1585289619833964060,waist_imu_link,-0.49625363946,0.618056058884,-0.469544112682,0.388931185007,2.28658362634e-05,0.0,0.0,0.0,2.01345763367e-05,0.0,0.0,0.0,4.48232776091e-05,0.000889105838723,-0.00580669008195,0.00125633180141,0.01,0.0,0.0,0.0,0.01,0.0,0.0,0.0,0.01,0.121642321348,9.45392513275,2.58936142921,0.01,0.0,0.0,0.0,0.01,0.0,0.0,0.0,0.01
1585289619859767029,8306,1585289619859115165,waist_imu_link,-0.496280014515,0.618047297001,-0.46951186657,0.388950318098,2.28443130811e-05,0.0,0.0,0.0,2.01175211501e-05,0.0,0.0,0.0,4.4833022269e-05,0.00121688202489,-0.00604124180973,-0.00088457390666,0.01,0.0,0.0,0.0,0.01,0.0,0.0,0.0,0.01,0.16826108098,9.46671295166,2.55870127678,0.01,0.0,0.0,0.0,0.01,0.0,0.0,0.0,0.01
1585289619884691964,8307,1585289619883954422,waist_imu_link,-0.496309548616,0.618031859398,-0.469481319189,0.388974010944,2.28133357908e-05,0.0,0.0,0.0,2.00925987152e-05,0.0,0.0,0.0,4.48394997451e-05,-0.00250813504681,-0.00450063217431,-0.000572916120291,0.01,0.0,0.0,0.0,0.01,0.0,0.0,0.0,0.01,0.16960029304,9.51475811005,2.48408555984,0.01,0.0,0.0,0.0,0.01,0.0,0.0,0.0,0.01
1585289619909732589,8308,1585289619908951365,waist_imu_link,-0.496335893869,0.6180306077,-0.469467282295,0.388959169388,2.27662521788e-05,0.0,0.0,0.0,2.00544307761e-05,0.0,0.0,0.0,4.48418566687e-05,-0.00172521104105,0.000543797854334,-0.000853210687637,0.01,0.0,0.0,0.0,0.01,0.0,0.0,0.0,0.01,0.129254177213,9.54180335999,2.51553249359,0.01,0.0,0.0,0.0,0.01,0.0,0.0,0.0,0.01
1585289619934318305,8309,1585289619933705547,waist_imu_link,-0.496289610863,0.618063390255,-0.469475835562,0.388956069946,2.27060449725e-05,0.0,0.0,0.0,2.00035029405e-05,0.0,0.0,0.0,4.48282759125e-05,0.00556526891887,0.00208022538573,0.00606556981802,0.01,0.0,0.0,0.0,0.01,0.0,0.0,0.0,0.01,0.0996174663305,9.49558258057,2.56825304031,0.01,0.0,0.0,0.0,0.01,0.0,0.0,0.0,0.01
1585289619959548683,8310,1585289619958740167,waist_imu_link,-0.496154844761,0.618066251278,-0.469576895237,0.389001399279,2.2635258024e-05,0.0,0.0,0.0,1.99440576707e-05,0.0,0.0,0.0,4.48117774475e-05,0.0112889790908,0.00531735736877,0.00636947713792,0.01,0.0,0.0,0.0,0.01,0.0,0.0,0.0,0.01,0.134116083384,9.47375106812,2.48531794548,0.01,0.0,0.0,0.0,0.01,0.0,0.0,0.0,0.01
1585289619984456289,8311,1585289619983733714,waist_imu_link,-0.496053516865,0.618059098721,-0.469677746296,0.389020264149,2.25692479093e-05,0.0,0.0,0.0,1.98895578767e-05,0.0,0.0,0.0,4.48019068142e-05,0.00479070888832,0.00433375360444,-0.00164152309299,0.01,0.0,0.0,0.0,0.01,0.0,0.0,0.0,0.01,0.168469905853,9.50385761261,2.45767378807,0.01,0.0,0.0,0.0,0.01,0.0,0.0,0.0,0.01
1585289620009470289,8312,1585289620008724092,waist_imu_link,-0.496000409126,0.618076682091,-0.469745218754,0.3889785707,2.25571056892e-05,0.0,0.0,0.0,1.98766394974e-05,0.0,0.0,0.0,4.47899312042e-05,-0.00014528806787,0.00688221678138,-0.00223694369197,0.01,0.0,0.0,0.0,0.01,0.0,0.0,0.0,0.01,0.199688896537,9.47286510468,2.50635242462,0.01,0.0,0.0,0.0,0.01,0.0,0.0,0.0,0.01
1585289620034345498,8313,1585289620033717033,waist_imu_link,-0.495932042599,0.618131399155,-0.469811618328,0.388898432255,2.25292249088e-05,0.0,0.0,0.0,1.98515606115e-05,0.0,0.0,0.0,4.47783822787e-05,0.00287181558087,0.0123391347006,0.00227409601212,0.01,0.0,0.0,0.0,0.01,0.0,0.0,0.0,0.01,0.15002925694,9.4936876297,2.52782154083,0.01,0.0,0.0,0.0,0.01,0.0,0.0,0.0,0.01
1585289620059445111,8314,1585289620058799818,waist_imu_link,-0.495830327272,0.618220388889,-0.469866931438,0.388819813728,2.2485282507e-05,0.0,0.0,0.0,1.98139107892e-05,0.0,0.0,0.0,4.47651469338e-05,-0.00520438002422,0.00827841833234,0.00360191613436,0.01,0.0,0.0,0.0,0.01,0.0,0.0,0.0,0.01,0.119981586933,9.49503135681,2.48286867142,0.01,0.0,0.0,0.0,0.01,0.0,0.0,0.0,0.01
1585289620084796399,8315,1585289620083985177,waist_imu_link,-0.495750814676,0.618289589882,-0.469905078411,0.388765215874,2.24233035444e-05,0.0,0.0,0.0,1.97629260623e-05,0.0,0.0,0.0,4.47554266559e-05,0.00235368590802,0.00980773102492,0.00368475541472,0.01,0.0,0.0,0.0,0.01,0.0,0.0,0.0,0.01,0.163130968809,9.51694869995,2.49857258797,0.01,0.0,0.0,0.0,0.01,0.0,0.0,0.0,0.01
1585289620109478326,8316,1585289620108791413,waist_imu_link,-0.495602577925,0.618370950222,-0.469970911741,0.388745188713,2.23507549987e-05,0.0,0.0,0.0,1.97045840766e-05,0.0,0.0,0.0,4.47503755248e-05,0.0029743462801,0.0123313423246,0.00684014335275,0.01,0.0,0.0,0.0,0.01,0.0,0.0,0.0,0.01,0.197319626808,9.47249794006,2.49424004555,0.01,0.0,0.0,0.0,0.01,0.0,0.0,0.0,0.01
1585289620134250940,8317,1585289620133628635,waist_imu_link,-0.49545481801,0.618463099003,-0.470050692558,0.388690531254,2.22600723642e-05,0.0,0.0,0.0,1.96335756585e-05,0.0,0.0,0.0,4.47533907615e-05,0.000938951154239,0.0143334474415,0.00589035078883,0.01,0.0,0.0,0.0,0.01,0.0,0.0,0.0,0.01,0.156401574612,9.52873706818,2.50397109985,0.01,0.0,0.0,0.0,0.01,0.0,0.0,0.0,0.01
1585289620159424168,8318,1585289620158801349,waist_imu_link,-0.495343238115,0.618583858013,-0.470083087683,0.388601481915,2.21495326487e-05,0.0,0.0,0.0,1.95451077195e-05,0.0,0.0,0.0,4.47436989293e-05,-0.00391034409404,0.0087910965085,0.00296565145254,0.01,0.0,0.0,0.0,0.01,0.0,0.0,0.0,0.01,0.164342224598,9.46900653839,2.52977705002,0.01,0.0,0.0,0.0,0.01,0.0,0.0,0.0,0.01
1585289620184212789,8319,1585289620183484487,waist_imu_link,-0.49527657032,0.618647634983,-0.470115512609,0.388545572758,2.20187802817e-05,0.0,0.0,0.0,1.9440098647e-05,0.0,0.0,0.0,4.4728378926e-05,-0.000397017167415,0.00608722772449,0.000257316976786,0.01,0.0,0.0,0.0,0.01,0.0,0.0,0.0,0.01,0.181271880865,9.52515220642,2.49907255173,0.01,0.0,0.0,0.0,0.01,0.0,0.0,0.0,0.01
1585289620209108999,8320,1585289620208451952,waist_imu_link,-0.495170742273,0.618701636791,-0.470179498196,0.388517141342,2.19059100564e-05,0.0,0.0,0.0,1.93494789993e-05,0.0,0.0,0.0,4.47149688436e-05,0.00280984980054,0.00887638889253,0.00234687328339,0.01,0.0,0.0,0.0,0.01,0.0,0.0,0.0,0.01,0.181500792503,9.55566310883,2.49196147919,0.01,0.0,0.0,0.0,0.01,0.0,0.0,0.0,0.01
1585289620234266087,8321,1585289620233649070,waist_imu_link,-0.495032340288,0.618763446808,-0.470239192247,0.388522565365,2.17827242268e-05,0.0,0.0,0.0,1.92506223101e-05,0.0,0.0,0.0,4.47001405435e-05,0.00504465773702,0.00704306829721,0.00653055123985,0.01,0.0,0.0,0.0,0.01,0.0,0.0,0.0,0.01,0.182759359479,9.47080898285,2.53591036797,0.01,0.0,0.0,0.0,0.01,0.0,0.0,0.0,0.01
1585289620259086310,8322,1585289620258530987,waist_imu_link,-0.494958668947,0.618810296059,-0.470252007246,0.388526499271,2.1598754151e-05,0.0,0.0,0.0,1.91052082531e-05,0.0,0.0,0.0,4.46900992363e-05,-0.00269999471493,-5.10092359036e-05,0.00143585726619,0.01,0.0,0.0,0.0,0.01,0.0,0.0,0.0,0.01,0.155498892069,9.4617767334,2.47451996803,0.01,0.0,0.0,0.0,0.01,0.0,0.0,0.0,0.01
1585289620284143469,8323,1585289620283424379,waist_imu_link,-0.494989603758,0.61879825592,-0.470213383436,0.388552904129,2.15099326734e-05,0.0,0.0,0.0,1.90337345457e-05,0.0,0.0,0.0,4.4676855764e-05,-0.00285677518696,-0.00688671786338,-0.00203294679523,0.01,0.0,0.0,0.0,0.01,0.0,0.0,0.0,0.01,0.223838418722,9.47398948669,2.49659514427,0.01,0.0,0.0,0.0,0.01,0.0,0.0,0.0,0.01
1585289620308804029,8324,1585289620308261280,waist_imu_link,-0.495027124882,0.618795752525,-0.470162063837,0.38857126236,2.14356712944e-05,0.0,0.0,0.0,1.89744904272e-05,0.0,0.0,0.0,4.46676271891e-05,-0.000347191118635,-0.00618802895769,-0.001937918365,0.01,0.0,0.0,0.0,0.01,0.0,0.0,0.0,0.01,0.206929907203,9.52745628357,2.50975871086,0.01,0.0,0.0,0.0,0.01,0.0,0.0,0.0,0.01
1585289620334376099,8325,1585289620333704034,waist_imu_link,-0.495021253824,0.618769109249,-0.470154345036,0.388630539179,2.12958447717e-05,0.0,0.0,0.0,1.88637414331e-05,0.0,0.0,0.0,4.46575411817e-05,0.00314622651786,-0.00674669351429,0.000535815954208,0.01,0.0,0.0,0.0,0.01,0.0,0.0,0.0,0.01,0.165469884872,9.46951389313,2.48612451553,0.01,0.0,0.0,0.0,0.01,0.0,0.0,0.0,0.01
1585289620360182195,8326,1585289620359379240,waist_imu_link,-0.495054066181,0.618765115738,-0.470097392797,0.388663858175,2.11288628321e-05,0.0,0.0,0.0,1.87342935014e-05,0.0,0.0,0.0,4.46646972893e-05,-0.00715289218351,-0.00590684218332,0.000404290854931,0.01,0.0,0.0,0.0,0.01,0.0,0.0,0.0,0.01,0.123244956136,9.4695930481,2.4703438282,0.01,0.0,0.0,0.0,0.01,0.0,0.0,0.0,0.01
1585289620385210765,8327,1585289620384409288,waist_imu_link,-0.495156168938,0.618746221066,-0.470015436411,0.388663113117,2.09494074841e-05,0.0,0.0,0.0,1.85927378907e-05,0.0,0.0,0.0,4.46570413514e-05,-0.00788623653352,-0.0111331902444,-0.00637538731098,0.01,0.0,0.0,0.0,0.01,0.0,0.0,0.0,0.01,0.168904811144,9.50277519226,2.52719664574,0.01,0.0,0.0,0.0,0.01,0.0,0.0,0.0,0.01
1585289620409183445,8328,1585289620408497142,waist_imu_link,-0.495272487402,0.61866825819,-0.469965010881,0.388700127602,2.07654780449e-05,0.0,0.0,0.0,1.84467691439e-05,0.0,0.0,0.0,4.46437816244e-05,0.00175364897586,-0.00998408161104,-0.00801984593272,0.01,0.0,0.0,0.0,0.01,0.0,0.0,0.0,0.01,0.178957492113,9.51903343201,2.52241635323,0.01,0.0,0.0,0.0,0.01,0.0,0.0,0.0,0.01
1585289620434292018,8329,1585289620433329400,waist_imu_link,-0.495301693678,0.618636667728,-0.469961047173,0.388717889786,2.06149661247e-05,0.0,0.0,0.0,1.83284007848e-05,0.0,0.0,0.0,4.46389824404e-05,-0.00137476995587,-0.000312340678647,-0.00148486718535,0.01,0.0,0.0,0.0,0.01,0.0,0.0,0.0,0.01,0.139424040914,9.49114990234,2.5148601532,0.01,0.0,0.0,0.0,0.01,0.0,0.0,0.0,0.01
1585289620459971044,8330,1585289620459270870,waist_imu_link,-0.4953353405,0.618622601032,-0.46995934844,0.388699293137,2.04002463236e-05,0.0,0.0,0.0,1.81589176617e-05,0.0,0.0,0.0,4.46317613142e-05,-0.00127219280694,-0.00603578239679,-0.00387469679117,0.01,0.0,0.0,0.0,0.01,0.0,0.0,0.0,0.01,0.115196689963,9.47599029541,2.5432498455,0.01,0.0,0.0,0.0,0.01,0.0,0.0,0.0,0.01
1585289620484904029,8331,1585289620484275146,waist_imu_link,-0.49544236064,0.618572533131,-0.469925582409,0.38868355751,2.01611730001e-05,0.0,0.0,0.0,1.79689313353e-05,0.0,0.0,0.0,4.46176279001e-05,-0.00360119063407,-0.00498098600656,-0.00519628077745,0.01,0.0,0.0,0.0,0.01,0.0,0.0,0.0,0.01,0.140144914389,9.51594829559,2.50003051758,0.01,0.0,0.0,0.0,0.01,0.0,0.0,0.0,0.01
1585289620510223391,8332,1585289620509319212,waist_imu_link,-0.495447158813,0.618543207645,-0.469951868057,0.388692200184,2.00116912181e-05,0.0,0.0,0.0,1.7849796976e-05,0.0,0.0,0.0,4.4601694284e-05,0.00666157342494,-0.00139040476643,0.00168773904443,0.01,0.0,0.0,0.0,0.01,0.0,0.0,0.0,0.01,0.158714711666,9.53523635864,2.55569267273,0.01,0.0,0.0,0.0,0.01,0.0,0.0,0.0,0.01
1585289620534066578,8333,1585289620533776015,waist_imu_link,-0.495404332876,0.618508458138,-0.469975054264,0.388774186373,1.99007349772e-05,0.0,0.0,0.0,1.77612538593e-05,0.0,0.0,0.0,4.45849966996e-05,0.011404518038,-0.00695046968758,0.000484045594931,0.01,0.0,0.0,0.0,0.01,0.0,0.0,0.0,0.01,0.169618949294,9.52906894684,2.54569363594,0.01,0.0,0.0,0.0,0.01,0.0,0.0,0.0,0.01
1585289620559165494,8334,1585289620558891820,waist_imu_link,-0.495384603739,0.61840981245,-0.470029145479,0.388890832663,1.97652321901e-05,0.0,0.0,0.0,1.76537659534e-05,0.0,0.0,0.0,4.45722571214e-05,0.00444385455921,-0.00574815459549,-0.00139632448554,0.01,0.0,0.0,0.0,0.01,0.0,0.0,0.0,0.01,0.15071798861,9.4630241394,2.46709132195,0.01,0.0,0.0,0.0,0.01,0.0,0.0,0.0,0.01
1585289620585692871,8335,1585289620584458455,waist_imu_link,-0.495433151722,0.618373453617,-0.470026046038,0.388890594244,1.96110731339e-05,0.0,0.0,0.0,1.75322990525e-05,0.0,0.0,0.0,4.45667549239e-05,-0.00595365092158,-0.00688829179853,-0.00607135146856,0.01,0.0,0.0,0.0,0.01,0.0,0.0,0.0,0.01,0.140607953072,9.44338130951,2.48247599602,0.01,0.0,0.0,0.0,0.01,0.0,0.0,0.0,0.01
1585289620609861113,8336,1585289620609202417,waist_imu_link,-0.495556235313,0.618366420269,-0.469949662685,0.388837248087,1.94705415659e-05,0.0,0.0,0.0,1.74218182601e-05,0.0,0.0,0.0,4.4562398679e-05,-0.00881557352841,-0.00686065293849,-0.00411360710859,0.01,0.0,0.0,0.0,0.01,0.0,0.0,0.0,0.01,0.10891931504,9.46531295776,2.52690148354,0.01,0.0,0.0,0.0,0.01,0.0,0.0,0.0,0.01
1585289620634862894,8337,1585289620634214090,waist_imu_link,-0.495646625757,0.618387579918,-0.469891607761,0.388758391142,1.93635189492e-05,0.0,0.0,0.0,1.73374017914e-05,0.0,0.0,0.0,4.45520322789e-05,-0.0104015944526,-0.00327316205949,-0.00522108003497,0.01,0.0,0.0,0.0,0.01,0.0,0.0,0.0,0.01,0.104535102844,9.53036880493,2.49131298065,0.01,0.0,0.0,0.0,0.01,0.0,0.0,0.0,0.01
1585289620659900418,8338,1585289620659276011,waist_imu_link,-0.495705515146,0.618410944939,-0.469862341881,0.388681590557,1.93533638596e-05,0.0,0.0,0.0,1.7332102777e-05,0.0,0.0,0.0,4.45532798229e-05,-0.00739085767418,0.00125792238396,-0.000136569142342,0.01,0.0,0.0,0.0,0.01,0.0,0.0,0.0,0.01,0.0748337283731,9.54599475861,2.53878641129,0.01,0.0,0.0,0.0,0.01,0.0,0.0,0.0,0.01
1585289620684871564,8339,1585289620684239172,waist_imu_link,-0.495712965727,0.618458390236,-0.469852745533,0.388608306646,1.93533272866e-05,0.0,0.0,0.0,1.7333902979e-05,0.0,0.0,0.0,4.45470908667e-05,0.000131650245748,0.00236540916376,-0.00176101177931,0.01,0.0,0.0,0.0,0.01,0.0,0.0,0.0,0.01,0.123994171619,9.52244186401,2.574406147,0.01,0.0,0.0,0.0,0.01,0.0,0.0,0.0,0.01
1585289620709797186,8340,1585289620709131686,waist_imu_link,-0.495691388845,0.618442296982,-0.469906717539,0.388596147299,1.93396997983e-05,0.0,0.0,0.0,1.73241420645e-05,0.0,0.0,0.0,4.4535736997e-05,0.00349318794906,0.00044380244799,-0.00320675596595,0.01,0.0,0.0,0.0,0.01,0.0,0.0,0.0,0.01,0.209043443203,9.47791576385,2.49722743034,0.01,0.0,0.0,0.0,0.01,0.0,0.0,0.0,0.01
1585289620734680493,8341,1585289620734028125,waist_imu_link,-0.495675295591,0.61842495203,-0.469954043627,0.388586878777,1.93167807484e-05,0.0,0.0,0.0,1.73063452597e-05,0.0,0.0,0.0,4.45203966754e-05,0.00131615635473,0.000908883521333,-0.00340053066611,0.01,0.0,0.0,0.0,0.01,0.0,0.0,0.0,0.01,0.150261491537,9.50030136108,2.47036361694,0.01,0.0,0.0,0.0,0.01,0.0,0.0,0.0,0.01
1585289620759823833,8342,1585289620759066531,waist_imu_link,-0.495653837919,0.618447184563,-0.469987183809,0.388538956642,1.92795007194e-05,0.0,0.0,0.0,1.72780946861e-05,0.0,0.0,0.0,4.45132446315e-05,-0.0045024077408,0.00303376745433,-0.000533606857061,0.01,0.0,0.0,0.0,0.01,0.0,0.0,0.0,0.01,0.139318972826,9.47420024872,2.46070432663,0.01,0.0,0.0,0.0,0.01,0.0,0.0,0.0,0.01
1585289620784756987,8343,1585289620783985339,waist_imu_link,-0.495700895786,0.618476688862,-0.469954282045,0.388471603394,1.92446934283e-05,0.0,0.0,0.0,1.72542369304e-05,0.0,0.0,0.0,4.452483013e-05,-0.00824344810098,0.000605260254815,-0.00315141677856,0.01,0.0,0.0,0.0,0.01,0.0,0.0,0.0,0.01,0.179295346141,9.59160995483,2.51675748825,0.01,0.0,0.0,0.0,0.01,0.0,0.0,0.0,0.01
1585289620809859835,8344,1585289620809158967,waist_imu_link,-0.495679587126,0.618492782116,-0.46998116374,0.388440787792,1.92867055909e-05,0.0,0.0,0.0,1.72904157073e-05,0.0,0.0,0.0,4.45237776417e-05,0.00408331491053,0.00373129872605,-0.000568933784962,0.01,0.0,0.0,0.0,0.01,0.0,0.0,0.0,0.01,0.188960552216,9.50807380676,2.5341629982,0.01,0.0,0.0,0.0,0.01,0.0,0.0,0.0,0.01
1585289620834581051,8345,1585289620833937792,waist_imu_link,-0.495649844408,0.618464648724,-0.470043152571,0.388448566198,1.9326253143e-05,0.0,0.0,0.0,1.73236137885e-05,0.0,0.0,0.0,4.45158494384e-05,0.00489131174982,-0.00182590214536,-0.00407596305013,0.01,0.0,0.0,0.0,0.01,0.0,0.0,0.0,0.01,0.147662013769,9.43586826324,2.52020120621,0.01,0.0,0.0,0.0,0.01,0.0,0.0,0.0,0.01
1585289620859513682,8346,1585289620858844163,waist_imu_link,-0.495727062225,0.618445217609,-0.470013141632,0.388417303562,1.93592663277e-05,0.0,0.0,0.0,1.73515453647e-05,0.0,0.0,0.0,4.45084495111e-05,-0.01030122675,-0.0051841204986,-0.00731518492103,0.01,0.0,0.0,0.0,0.01,0.0,0.0,0.0,0.01,0.132582917809,9.46605491638,2.47599768639,0.01,0.0,0.0,0.0,0.01,0.0,0.0,0.0,0.01
1585289620884609903,8347,1585289620883903873,waist_imu_link,-0.495830625296,0.618459045887,-0.469935506582,0.38835683465,1.93834654309e-05,0.0,0.0,0.0,1.73729628917e-05,0.0,0.0,0.0,4.45060722693e-05,-0.013550077565,-0.00222831894644,-0.0026961453259,0.01,0.0,0.0,0.0,0.01,0.0,0.0,0.0,0.01,0.149657860398,9.49007987976,2.50793910027,0.01,0.0,0.0,0.0,0.01,0.0,0.0,0.0,0.01
1585289620909739370,8348,1585289620909079522,waist_imu_link,-0.495886296034,0.618521571159,-0.469854623079,0.388284176588,1.93963167598e-05,0.0,0.0,0.0,1.73840871646e-05,0.0,0.0,0.0,4.44945111528e-05,-0.00401084311306,-0.00163799687289,-0.00100702792406,0.01,0.0,0.0,0.0,0.01,0.0,0.0,0.0,0.01,0.139516815543,9.55586242676,2.56115317345,0.01,0.0,0.0,0.0,0.01,0.0,0.0,0.0,0.01
1585289620934619447,8349,1585289620933826930,waist_imu_link,-0.495867222548,0.618498682976,-0.469883978367,0.388309419155,1.94020769998e-05,0.0,0.0,0.0,1.73894715159e-05,0.0,0.0,0.0,4.44836327314e-05,0.00563686341047,-0.000283397734165,-0.000102922320366,0.01,0.0,0.0,0.0,0.01,0.0,0.0,0.0,0.01,0.167453378439,9.49983787537,2.5263876915,0.01,0.0,0.0,0.0,0.01,0.0,0.0,0.0,0.01
1585289620959603827,8350,1585289620958985648,waist_imu_link,-0.495806932449,0.61852234602,-0.469922840595,0.388301640749,1.93964854018e-05,0.0,0.0,0.0,1.73858426663e-05,0.0,0.0,0.0,4.44731403578e-05,0.0012763440609,0.00431148381904,0.00214011594653,0.01,0.0,0.0,0.0,0.01,0.0,0.0,0.0,0.01,0.106927208602,9.4591293335,2.52823758125,0.01,0.0,0.0,0.0,0.01,0.0,0.0,0.0,0.01
1585289620984552048,8351,1585289620983870868,waist_imu_link,-0.495756238699,0.618550777435,-0.469968914986,0.388265281916,1.93782050213e-05,0.0,0.0,0.0,1.73732006159e-05,0.0,0.0,0.0,4.44718684318e-05,0.00148871552665,0.00430455664173,-7.53365457058e-05,0.01,0.0,0.0,0.0,0.01,0.0,0.0,0.0,0.01,0.153423964977,9.49501419067,2.57033538818,0.01,0.0,0.0,0.0,0.01,0.0,0.0,0.0,0.01
1585289621009452750,8352,1585289621008855757,waist_imu_link,-0.495712727308,0.618565320969,-0.469992220402,0.388269543648,1.93449622398e-05,0.0,0.0,0.0,1.73492697143e-05,0.0,0.0,0.0,4.44769236265e-05,0.00275498465635,0.0018534057308,-2.09957361221e-05,0.01,0.0,0.0,0.0,0.01,0.0,0.0,0.0,0.01,0.18251606822,9.51543426514,2.50670933723,0.01,0.0,0.0,0.0,0.01,0.0,0.0,0.0,0.01
1585289621034411485,8353,1585289621033705481,waist_imu_link,-0.495618253946,0.618575572968,-0.470069646835,0.388280123472,1.92975657258e-05,0.0,0.0,0.0,1.7313732996e-05,0.0,0.0,0.0,4.44805402851e-05,0.00444081565365,0.00926139205694,0.0020390599966,0.01,0.0,0.0,0.0,0.01,0.0,0.0,0.0,0.01,0.1693572402,9.46676635742,2.46460318565,0.01,0.0,0.0,0.0,0.01,0.0,0.0,0.0,0.01
1585289621059256602,8354,1585289621058630909,waist_imu_link,-0.495574504137,0.618613660336,-0.470107316971,0.388229519129,1.92355014263e-05,0.0,0.0,0.0,1.72647028902e-05,0.0,0.0,0.0,4.44708809621e-05,-0.00337649788707,0.000904551590793,-0.00301004201174,0.01,0.0,0.0,0.0,0.01,0.0,0.0,0.0,0.01,0.189035654068,9.4608631134,2.53591036797,0.01,0.0,0.0,0.0,0.01,0.0,0.0,0.0,0.01
1585289621084153740,8355,1585289621083537029,waist_imu_link,-0.49564987421,0.618602752686,-0.470089614391,0.388172149658,1.91604374742e-05,0.0,0.0,0.0,1.72048898591e-05,0.0,0.0,0.0,4.44591816811e-05,-0.00415048934519,-0.00202855956741,-0.00579214841127,0.01,0.0,0.0,0.0,0.01,0.0,0.0,0.0,0.01,0.147155821323,9.53542423248,2.56025910378,0.01,0.0,0.0,0.0,0.01,0.0,0.0,0.0,0.01
1585289621109225353,8356,1585289621108510531,waist_imu_link,-0.495621949434,0.61861884594,-0.470119267702,0.388146400452,1.90804808739e-05,0.0,0.0,0.0,1.71430145198e-05,0.0,0.0,0.0,4.44621197083e-05,0.00702882977203,0.00570080336183,0.00319275632501,0.01,0.0,0.0,0.0,0.01,0.0,0.0,0.0,0.01,0.190663516521,9.50112533569,2.55935645103,0.01,0.0,0.0,0.0,0.01,0.0,0.0,0.0,0.01
1585289621134397868,8357,1585289621133719234,waist_imu_link,-0.495556056499,0.618645012379,-0.470138370991,0.38816550374,1.90119350345e-05,0.0,0.0,0.0,1.70897419516e-05,0.0,0.0,0.0,4.44604779891e-05,0.000689289299771,2.91839241982e-05,5.32232224941e-05,0.01,0.0,0.0,0.0,0.01,0.0,0.0,0.0,0.01,0.167581662536,9.44483947754,2.55164790154,0.01,0.0,0.0,0.0,0.01,0.0,0.0,0.0,0.01
1585289621159511423,8358,1585289621158739194,waist_imu_link,-0.495614230633,0.618632733822,-0.470102339983,0.388154447079,1.89360542865e-05,0.0,0.0,0.0,1.70299847958e-05,0.0,0.0,0.0,4.44543621788e-05,-0.00460614683107,-0.00679575419053,-0.00846458226442,0.01,0.0,0.0,0.0,0.01,0.0,0.0,0.0,0.01,0.189947411418,9.52362537384,2.4989323616,0.01,0.0,0.0,0.0,0.01,0.0,0.0,0.0,0.01
1585289621184273041,8359,1585289621183723580,waist_imu_link,-0.495691090822,0.618552923203,-0.470111310482,0.3881726861,1.88858883873e-05,0.0,0.0,0.0,1.69941240005e-05,0.0,0.0,0.0,4.44725429996e-05,0.00176196568646,-0.00469824764878,-0.00821338966489,0.01,0.0,0.0,0.0,0.01,0.0,0.0,0.0,0.01,0.16705442965,9.50574588776,2.53110694885,0.01,0.0,0.0,0.0,0.01,0.0,0.0,0.0,0.01
1585289621209194315,8360,1585289621208485170,waist_imu_link,-0.495719641447,0.618540942669,-0.470091700554,0.388179033995,1.87849226579e-05,0.0,0.0,0.0,1.69151863632e-05,0.0,0.0,0.0,4.44759320932e-05,-0.00329481088556,-0.00343155069277,-0.000209905207157,0.01,0.0,0.0,0.0,0.01,0.0,0.0,0.0,0.01,0.135935232043,9.44248390198,2.52230930328,0.01,0.0,0.0,0.0,0.01,0.0,0.0,0.0,0.01
1585289621234070669,8361,1585289621233457747,waist_imu_link,-0.495771557093,0.61850553751,-0.470061540604,0.388205677271,1.8693862103e-05,0.0,0.0,0.0,1.68443293165e-05,0.0,0.0,0.0,4.44799551179e-05,0.00154015584849,-0.00887070037425,-0.00241194665432,0.01,0.0,0.0,0.0,0.01,0.0,0.0,0.0,0.01,0.0938624516129,9.54071807861,2.46357774734,0.01,0.0,0.0,0.0,0.01,0.0,0.0,0.0,0.01
1585289621259066060,8362,1585289621258373422,waist_imu_link,-0.495844483376,0.618462920189,-0.470026642084,0.388222813606,1.85693637108e-05,0.0,0.0,0.0,1.67471803809e-05,0.0,0.0,0.0,4.44920079374e-05,-0.00688652228564,-0.00655965320766,-0.00509003922343,0.01,0.0,0.0,0.0,0.01,0.0,0.0,0.0,0.01,0.151220008731,9.50547790527,2.49085760117,0.01,0.0,0.0,0.0,0.01,0.0,0.0,0.0,0.01
1585289621284185353,8363,1585289621283490954,waist_imu_link,-0.49591460824,0.618457376957,-0.469987988472,0.388188838959,1.84614795979e-05,0.0,0.0,0.0,1.66616972012e-05,0.0,0.0,0.0,4.44895575496e-05,0.00195940490812,-0.00100068654865,-0.00471150502563,0.01,0.0,0.0,0.0,0.01,0.0,0.0,0.0,0.01,0.178102016449,9.53342914581,2.57173395157,0.01,0.0,0.0,0.0,0.01,0.0,0.0,0.0,0.01
1585289621308945203,8364,1585289621308282748,waist_imu_link,-0.495872139931,0.618415117264,-0.470055729151,0.388228327036,1.83617837626e-05,0.0,0.0,0.0,1.65818950199e-05,0.0,0.0,0.0,4.4479101749e-05,0.00895982980728,-0.000144372228533,0.000598505139351,0.01,0.0,0.0,0.0,0.01,0.0,0.0,0.0,0.01,0.116582214832,9.41975307465,2.51279258728,0.01,0.0,0.0,0.0,0.01,0.0,0.0,0.0,0.01
1585289621334075175,8365,1585289621333403648,waist_imu_link,-0.495874881744,0.618412315845,-0.470054209232,0.388231128454,1.83613652055e-05,0.0,0.0,0.0,1.65830836409e-05,0.0,0.0,0.0,4.44688735134e-05,-0.00785132776946,-0.00254060537554,-0.000950329005718,0.01,0.0,0.0,0.0,0.01,0.0,0.0,0.0,0.01,0.140505895019,9.47523593903,2.45499944687,0.01,0.0,0.0,0.0,0.01,0.0,0.0,0.0,0.01
1585289621359013769,8366,1585289621358428916,waist_imu_link,-0.495903849602,0.618467271328,-0.470001488924,0.388170540333,1.83799747426e-05,0.0,0.0,0.0,1.66003836631e-05,0.0,0.0,0.0,4.44635907537e-05,-0.010088738054,0.000577362719923,-0.00110502168536,0.01,0.0,0.0,0.0,0.01,0.0,0.0,0.0,0.01,0.111834168434,9.54963970184,2.53803229332,0.01,0.0,0.0,0.0,0.01,0.0,0.0,0.0,0.01
1585289621383912053,8367,1585289621383217955,waist_imu_link,-0.495923936367,0.618487894535,-0.469998121262,0.388115972281,1.83971924756e-05,0.0,0.0,0.0,1.66203951633e-05,0.0,0.0,0.0,4.44909270035e-05,0.00442957133055,0.00188595219515,-0.00341478362679,0.01,0.0,0.0,0.0,0.01,0.0,0.0,0.0,0.01,0.175562769175,9.53221416473,2.59345817566,0.01,0.0,0.0,0.0,0.01,0.0,0.0,0.0,0.01
1585289621409190170,8368,1585289621408461407,waist_imu_link,-0.49586212635,0.618507444859,-0.470040440559,0.388112545013,1.84074105521e-05,0.0,0.0,0.0,1.6632277309e-05,0.0,0.0,0.0,4.449893648e-05,0.00189160939772,0.00363474292681,0.00271648168564,0.01,0.0,0.0,0.0,0.01,0.0,0.0,0.0,0.01,0.149870499969,9.43833065033,2.52896213531,0.01,0.0,0.0,0.0,0.01,0.0,0.0,0.0,0.01
1585289621433967773,8369,1585289621433474629,waist_imu_link,-0.495827466249,0.618523776531,-0.470040291548,0.388130962849,1.8406282886e-05,0.0,0.0,0.0,1.66345478798e-05,0.0,0.0,0.0,4.45049100621e-05,-0.00407266290858,-0.00311693246476,0.0016562640667,0.01,0.0,0.0,0.0,0.01,0.0,0.0,0.0,0.01,0.148431539536,9.50206375122,2.45569729805,0.01,0.0,0.0,0.0,0.01,0.0,0.0,0.0,0.01
1585289621458927024,8370,1585289621458384640,waist_imu_link,-0.495891779661,0.618609368801,-0.469900637865,0.388081490993,1.83992019562e-05,0.0,0.0,0.0,1.66299010831e-05,0.0,0.0,0.0,4.44942470148e-05,-0.020004812628,-0.00483809737489,0.00261854752898,0.01,0.0,0.0,0.0,0.01,0.0,0.0,0.0,0.01,0.147880971432,9.5041809082,2.53622627258,0.01,0.0,0.0,0.0,0.01,0.0,0.0,0.0,0.01
1585289621484020267,8371,1585289621483392407,waist_imu_link,-0.495987862349,0.618659734726,-0.469774365425,0.388031125069,1.83783289597e-05,0.0,0.0,0.0,1.66156325522e-05,0.0,0.0,0.0,4.44975426441e-05,-0.0042612454854,-0.0036924672313,-0.00348856672645,0.01,0.0,0.0,0.0,0.01,0.0,0.0,0.0,0.01,0.192950308323,9.55029678345,2.57584047318,0.01,0.0,0.0,0.0,0.01,0.0,0.0,0.0,0.01
1585289621509012844,8372,1585289621508272308,waist_imu_link,-0.495984256268,0.618633449078,-0.469791978598,0.388056397438,1.83503547151e-05,0.0,0.0,0.0,1.65948733383e-05,0.0,0.0,0.0,4.44952466755e-05,0.00303890695795,-0.00041460362263,-0.00112663954496,0.01,0.0,0.0,0.0,0.01,0.0,0.0,0.0,0.01,0.173580616713,9.45652008057,2.53247737885,0.01,0.0,0.0,0.0,0.01,0.0,0.0,0.0,0.01
1585289621534269467,8373,1585289621533217569,waist_imu_link,-0.496002852917,0.618628203869,-0.469785094261,0.388049453497,1.83075277884e-05,0.0,0.0,0.0,1.65616173499e-05,0.0,0.0,0.0,4.44907929026e-05,-0.00222010398284,0.000395433278754,-0.000122729688883,0.01,0.0,0.0,0.0,0.01,0.0,0.0,0.0,0.01,0.105018630624,9.47364425659,2.539945364,0.01,0.0,0.0,0.0,0.01,0.0,0.0,0.0,0.01
1585289621558512147,8374,1585289621557965622,waist_imu_link,-0.49604165554,0.618650197983,-0.469736456871,0.388023734093,1.82506731027e-05,0.0,0.0,0.0,1.65162577462e-05,0.0,0.0,0.0,4.44808328687e-05,-0.00497838295996,-0.00330552179366,0.00231876969337,0.01,0.0,0.0,0.0,0.01,0.0,0.0,0.0,0.01,0.0867064371705,9.50735855103,2.50898528099,0.01,0.0,0.0,0.0,0.01,0.0,0.0,0.0,0.01
1585289621583095841,8375,1585289621582870467,waist_imu_link,-0.496081024408,0.618632495403,-0.469722062349,0.388018995523,1.81772021058e-05,0.0,0.0,0.0,1.64576150495e-05,0.0,0.0,0.0,4.4473270395e-05,-0.00310324062593,-0.0032447790727,-0.00323456525803,0.01,0.0,0.0,0.0,0.01,0.0,0.0,0.0,0.01,0.157273173332,9.53981399536,2.50106716156,0.01,0.0,0.0,0.0,0.01,0.0,0.0,0.0,0.01
1585289621608796473,8376,1585289621608172095,waist_imu_link,-0.496082931757,0.618643224239,-0.469730556011,0.387988954782,1.80886366389e-05,0.0,0.0,0.0,1.63863668754e-05,0.0,0.0,0.0,4.4463899592e-05,-0.000458777765743,0.00245838449337,-0.00341009348631,0.01,0.0,0.0,0.0,0.01,0.0,0.0,0.0,0.01,0.168972864747,9.48595046997,2.56030535698,0.01,0.0,0.0,0.0,0.01,0.0,0.0,0.0,0.01
1585289621634043383,8377,1585289621633284332,waist_imu_link,-0.496078133583,0.618662178516,-0.46975427866,0.387936234474,1.79859377579e-05,0.0,0.0,0.0,1.63031441073e-05,0.0,0.0,0.0,4.44518955364e-05,0.000912856543437,0.0031461645849,-0.00128871947527,0.01,0.0,0.0,0.0,0.01,0.0,0.0,0.0,0.01,0.127158865333,9.48993110657,2.55220198631,0.01,0.0,0.0,0.0,0.01,0.0,0.0,0.0,0.01
1585289621658829205,8378,1585289621658187386,waist_imu_link,-0.496067911386,0.618715047836,-0.469755083323,0.387864112854,1.78652206026e-05,0.0,0.0,0.0,1.62050818638e-05,0.0,0.0,0.0,4.44389934117e-05,-0.00513225188479,0.00252609234303,0.000392876565456,0.01,0.0,0.0,0.0,0.01,0.0,0.0,0.0,0.01,0.117382392287,9.4713640213,2.51679325104,0.01,0.0,0.0,0.0,0.01,0.0,0.0,0.0,0.01
1585289621683950664,8379,1585289621683196838,waist_imu_link,-0.496076017618,0.618747591972,-0.46973541379,0.387825667858,1.77286632954e-05,0.0,0.0,0.0,1.60942962968e-05,0.0,0.0,0.0,4.44290943327e-05,-0.00474558863789,-0.00398661568761,-0.002550765872,0.01,0.0,0.0,0.0,0.01,0.0,0.0,0.0,0.01,0.128654271364,9.49168777466,2.54731225967,0.01,0.0,0.0,0.0,0.01,0.0,0.0,0.0,0.01
1585289621708802449,8380,1585289621708188424,waist_imu_link,-0.49608823657,0.618734359741,-0.469746530056,0.387817680836,1.76304364737e-05,0.0,0.0,0.0,1.60153992961e-05,0.0,0.0,0.0,4.44223161456e-05,0.00269103213213,0.00121985946316,-0.0024948194623,0.01,0.0,0.0,0.0,0.01,0.0,0.0,0.0,0.01,0.190498158336,9.5242805481,2.51051902771,0.01,0.0,0.0,0.0,0.01,0.0,0.0,0.0,0.01
1585289621733588964,8381,1585289621732999813,waist_imu_link,-0.496056765318,0.61878567934,-0.469740211964,0.387783646584,1.74907115425e-05,0.0,0.0,0.0,1.59029405165e-05,0.0,0.0,0.0,4.44227753393e-05,-0.00823943968862,0.00514922756702,-0.000642698258162,0.01,0.0,0.0,0.0,0.01,0.0,0.0,0.0,0.01,0.157865732908,9.44961547852,2.55939531326,0.01,0.0,0.0,0.0,0.01,0.0,0.0,0.0,0.01
1585289621758513061,8382,1585289621757878238,waist_imu_link,-0.496089190245,0.618831694126,-0.469689041376,0.387730717659,1.73077533183e-05,0.0,0.0,0.0,1.57532829811e-05,0.0,0.0,0.0,4.44119497455e-05,-0.00298466603272,-0.00174652924761,6.01969659328e-05,0.01,0.0,0.0,0.0,0.01,0.0,0.0,0.0,0.01,0.132247164845,9.50226593018,2.5484085083,0.01,0.0,0.0,0.0,0.01,0.0,0.0,0.0,0.01
1585289621783750240,8383,1585289621783105292,waist_imu_link,-0.496137201786,0.618777453899,-0.469698548317,0.387744307518,1.71262925534e-05,0.0,0.0,0.0,1.56047531117e-05,0.0,0.0,0.0,4.44010550695e-05,0.00380511302501,-0.00658455351368,-0.00651517137885,0.01,0.0,0.0,0.0,0.01,0.0,0.0,0.0,0.01,0.176245510578,9.48777580261,2.5342040062,0.01,0.0,0.0,0.0,0.01,0.0,0.0,0.0,0.01
1585289621809533088,8384,1585289621808872532,waist_imu_link,-0.496190309525,0.618714034557,-0.469706267118,0.38776832819,1.69948788256e-05,0.0,0.0,0.0,1.54974114976e-05,0.0,0.0,0.0,4.43875677775e-05,0.000404912396334,-0.00357656786218,-0.00483720004559,0.01,0.0,0.0,0.0,0.01,0.0,0.0,0.0,0.01,0.18852648139,9.48217105865,2.54229331017,0.01,0.0,0.0,0.0,0.01,0.0,0.0,0.0,0.01
1585289621833977001,8385,1585289621833174792,waist_imu_link,-0.49620243907,0.618730425835,-0.46967369318,0.387765973806,1.6806502725e-05,0.0,0.0,0.0,1.53424112635e-05,0.0,0.0,0.0,4.43732271167e-05,-0.000301804102492,-0.00144702591933,0.00241535156965,0.01,0.0,0.0,0.0,0.01,0.0,0.0,0.0,0.01,0.125533267856,9.52522087097,2.57564783096,0.01,0.0,0.0,0.0,0.01,0.0,0.0,0.0,0.01
1585289621858510332,8386,1585289621857904672,waist_imu_link,-0.496179670095,0.618684947491,-0.46970307827,0.387832164764,1.67184401362e-05,0.0,0.0,0.0,1.52734031827e-05,0.0,0.0,0.0,4.4382593856e-05,0.00864334683865,-0.0051953215152,0.00196209549904,0.01,0.0,0.0,0.0,0.01,0.0,0.0,0.0,0.01,0.0876765176654,9.50039577484,2.53464794159,0.01,0.0,0.0,0.0,0.01,0.0,0.0,0.0,0.01
1585289621883830453,8387,1585289621883085628,waist_imu_link,-0.496195554733,0.618623971939,-0.469722300768,0.387885779142,1.66964811263e-05,0.0,0.0,0.0,1.52588461319e-05,0.0,0.0,0.0,4.43859219947e-05,0.00363974366337,-0.00393785862252,-0.00378281250596,0.01,0.0,0.0,0.0,0.01,0.0,0.0,0.0,0.01,0.142355442047,9.44007301331,2.51068615913,0.01,0.0,0.0,0.0,0.01,0.0,0.0,0.0,0.01
1585289621909652188,8388,1585289621909005435,waist_imu_link,-0.496265351772,0.618569254875,-0.469719916582,0.387886554003,1.67106460337e-05,0.0,0.0,0.0,1.52741834057e-05,0.0,0.0,0.0,4.43873483398e-05,-0.00118104217108,-0.00406943168491,-0.0046211630106,0.01,0.0,0.0,0.0,0.01,0.0,0.0,0.0,0.01,0.141032427549,9.47253131866,2.53006219864,0.01,0.0,0.0,0.0,0.01,0.0,0.0,0.0,0.01
1585289621934527172,8389,1585289621933874761,waist_imu_link,-0.496327728033,0.618576645851,-0.46965649724,0.387871831656,1.67130517212e-05,0.0,0.0,0.0,1.52818860757e-05,0.0,0.0,0.0,4.44107631564e-05,-0.00641949800774,-0.00331948325038,-0.000733770430088,0.01,0.0,0.0,0.0,0.01,0.0,0.0,0.0,0.01,0.1471978724,9.528673172,2.57475876808,0.01,0.0,0.0,0.0,0.01,0.0,0.0,0.0,0.01
1585289621959386308,8390,1585289621958767061,waist_imu_link,-0.496324926615,0.618602097034,-0.469625353813,0.387872457504,1.6708951487e-05,0.0,0.0,0.0,1.52829883438e-05,0.0,0.0,0.0,4.44229460131e-05,0.00187545444351,-0.00221607275307,0.00456137955189,0.01,0.0,0.0,0.0,0.01,0.0,0.0,0.0,0.01,0.109015397727,9.5027179718,2.5770573616,0.01,0.0,0.0,0.0,0.01,0.0,0.0,0.0,0.01
1585289621984531533,8391,1585289621983843957,waist_imu_link,-0.496289879084,0.61862051487,-0.469626158476,0.38788703084,1.67206822613e-05,0.0,0.0,0.0,1.52956293783e-05,0.0,0.0,0.0,4.44196381927e-05,3.92165966332e-05,-0.000866902759299,0.00254350528121,0.01,0.0,0.0,0.0,0.01,0.0,0.0,0.0,0.01,0.10684838146,9.43846130371,2.56453371048,0.01,0.0,0.0,0.0,0.01,0.0,0.0,0.0,0.01
1585289622009402236,8392,1585289622008733565,waist_imu_link,-0.49632191658,0.618622124195,-0.469609111547,0.387864112854,1.6738432334e-05,0.0,0.0,0.0,1.53122975012e-05,0.0,0.0,0.0,4.44073578082e-05,-0.00548906251788,-0.00063077849336,-0.00277211889625,0.01,0.0,0.0,0.0,0.01,0.0,0.0,0.0,0.01,0.159462094307,9.49676322937,2.5257537365,0.01,0.0,0.0,0.0,0.01,0.0,0.0,0.0,0.01
