%time,field.header.seq,field.header.stamp,field.header.frame_id,field.orientation.x,field.orientation.y,field.orientation.z,field.orientation.w,field.orientation_covariance0,field.orientation_covariance1,field.orientation_covariance2,field.orientation_covariance3,field.orientation_covariance4,field.orientation_covariance5,field.orientation_covariance6,field.orientation_covariance7,field.orientation_covariance8,field.angular_velocity.x,field.angular_velocity.y,field.angular_velocity.z,field.angular_velocity_covariance0,field.angular_velocity_covariance1,field.angular_velocity_covariance2,field.angular_velocity_covariance3,field.angular_velocity_covariance4,field.angular_velocity_covariance5,field.angular_velocity_covariance6,field.angular_velocity_covariance7,field.angular_velocity_covariance8,field.linear_acceleration.x,field.linear_acceleration.y,field.linear_acceleration.z,field.linear_acceleration_covariance0,field.linear_acceleration_covariance1,field.linear_acceleration_covariance2,field.linear_acceleration_covariance3,field.linear_acceleration_covariance4,field.linear_acceleration_covariance5,field.linear_acceleration_covariance6,field.linear_acceleration_covariance7,field.linear_acceleration_covariance8
1585291168167836655,46027,1585291168167104867,foot_imu_link,0.233139485121,0.163118258119,0.507663786411,-0.813213407993,0.0,0.0,0.0,0.0,0.0,0.0,0.0,0.0,0.0,-0.010922273621,0.00680610351264,-0.000353916548193,0.01,0.0,0.0,0.0,0.01,0.0,0.0,0.0,0.01,-4.89952039719,2.01003193855,-8.06471061707,0.01,0.0,0.0,0.0,0.01,0.0,0.0,0.0,0.01
1585291168168627318,46028,1585291168168318911,foot_imu_link,0.233152329922,0.163089737296,0.507673382759,-0.813209414482,0.0,0.0,0.0,0.0,0.0,0.0,0.0,0.0,0.0,-0.0113438116387,0.00745688704774,-0.000130185857415,0.01,0.0,0.0,0.0,0.01,0.0,0.0,0.0,0.01,-4.79736995697,2.06426548958,-8.0311794281,0.01,0.0,0.0,0.0,0.01,0.0,0.0,0.0,0.01
1585291168181616599,46029,1585291168178622710,foot_imu_link,0.233172535896,0.163058876991,0.507686913013,-0.813201367855,0.0,0.0,0.0,0.0,0.0,0.0,0.0,0.0,0.0,-0.012611463666,0.00612503429875,-0.00133000384085,0.01,0.0,0.0,0.0,0.01,0.0,0.0,0.0,0.01,-4.76601552963,2.09769749641,-8.02171897888,0.01,0.0,0.0,0.0,0.01,0.0,0.0,0.0,0.01
1585291168183585062,46030,1585291168182164900,foot_imu_link,0.233188673854,0.163029849529,0.507698655128,-0.813195228577,0.0,0.0,0.0,0.0,0.0,0.0,0.0,0.0,0.0,-0.0114855598658,0.00588162615895,-0.000418364536017,0.01,0.0,0.0,0.0,0.01,0.0,0.0,0.0,0.01,-4.80541324615,2.02523684502,-8.01550102234,0.01,0.0,0.0,0.0,0.01,0.0,0.0,0.0,0.01
1585291168183645281,46031,1585291168182956543,foot_imu_link,0.233202069998,0.163002595305,0.507708191872,-0.813190877438,0.0,0.0,0.0,0.0,0.0,0.0,0.0,0.0,0.0,-0.0116567350924,0.00727784447372,-0.000372294336557,0.01,0.0,0.0,0.0,0.01,0.0,0.0,0.0,0.01,-4.79173278809,2.03587031364,-7.99537944794,0.01,0.0,0.0,0.0,0.01,0.0,0.0,0.0,0.01
1585291168217128319,46032,1585291168213396170,foot_imu_link,0.233269050717,0.162855133414,0.507759153843,-0.813169419765,0.0,0.0,0.0,0.0,0.0,0.0,0.0,0.0,0.0,-0.0113179851323,0.00957196392119,0.000523936469108,0.01,0.0,0.0,0.0,0.01,0.0,0.0,0.0,0.01,-4.78113985062,2.05501079559,-8.00238800049,0.01,0.0,0.0,0.0,0.01,0.0,0.0,0.0,0.01
1585291168228507731,46033,1585291168227877563,foot_imu_link,0.233298674226,0.162757262588,0.507776021957,-0.813169836998,0.0,0.0,0.0,0.0,0.0,0.0,0.0,0.0,0.0,-0.00987516436726,0.00803121645004,0.0014317096211,0.01,0.0,0.0,0.0,0.01,0.0,0.0,0.0,0.01,-4.79064941406,2.03031349182,-8.00747871399,0.01,0.0,0.0,0.0,0.01,0.0,0.0,0.0,0.01
1585291168245157971,46034,1585291168244660719,foot_imu_link,0.233304053545,0.162681058049,0.507780313492,-0.813180983067,0.0,0.0,0.0,0.0,0.0,0.0,0.0,0.0,0.0,-0.00632549449801,0.00624156882986,0.00283485557884,0.01,0.0,0.0,0.0,0.01,0.0,0.0,0.0,0.01,-4.73975849152,2.04685091972,-8.01449584961,0.01,0.0,0.0,0.0,0.01,0.0,0.0,0.0,0.01
1585291168260708969,46035,1585291168260208440,foot_imu_link,0.233306825161,0.162583619356,0.507799983025,-0.813187420368,0.0,0.0,0.0,0.0,0.0,0.0,0.0,0.0,0.0,-0.00458839070052,0.00516823399812,0.00130279455334,0.01,0.0,0.0,0.0,0.01,0.0,0.0,0.0,0.01,-4.90081453323,2.0382797718,-8.068567276,0.01,0.0,0.0,0.0,0.01,0.0,0.0,0.0,0.01
1585291168276186717,46036,1585291168275531757,foot_imu_link,0.233313009143,0.162488713861,0.507817447186,-0.813193678856,0.0,0.0,0.0,0.0,0.0,0.0,0.0,0.0,0.0,-0.00686172489077,0.00718702189624,0.00257732579485,0.01,0.0,0.0,0.0,0.01,0.0,0.0,0.0,0.01,-4.8795838356,2.02477359772,-8.06180286407,0.01,0.0,0.0,0.0,0.01,0.0,0.0,0.0,0.01
1585291168291429779,46037,1585291168290920695,foot_imu_link,0.233331203461,0.162402242422,0.507829248905,-0.813198387623,0.0,0.0,0.0,0.0,0.0,0.0,0.0,0.0,0.0,-0.00585114955902,0.00683462666348,0.00328997056931,0.01,0.0,0.0,0.0,0.01,0.0,0.0,0.0,0.01,-4.79887247086,2.05388212204,-7.98701238632,0.01,0.0,0.0,0.0,0.01,0.0,0.0,0.0,0.01
1585291168312995815,46038,1585291168312334917,foot_imu_link,0.233340397477,0.162317946553,0.507827103138,-0.81321388483,0.0,0.0,0.0,0.0,0.0,0.0,0.0,0.0,0.0,-0.00351926591247,0.0108054885641,0.00311122089624,0.01,0.0,0.0,0.0,0.01,0.0,0.0,0.0,0.01,-4.82612085342,2.04069328308,-7.98491191864,0.01,0.0,0.0,0.0,0.01,0.0,0.0,0.0,0.01
1585291168328454477,46039,1585291168327706654,foot_imu_link,0.233343243599,0.162269204855,0.507831513882,-0.813220024109,0.0,0.0,0.0,0.0,0.0,0.0,0.0,0.0,0.0,-0.00115137919784,0.00556080462411,-6.00889325142e-06,0.01,0.0,0.0,0.0,0.01,0.0,0.0,0.0,0.01,-4.8561797142,2.09232115746,-8.00832271576,0.01,0.0,0.0,0.0,0.01,0.0,0.0,0.0,0.01
1585291168345603885,46040,1585291168344665511,foot_imu_link,0.233330696821,0.162234038115,0.507847309113,-0.813220798969,0.0,0.0,0.0,0.0,0.0,0.0,0.0,0.0,0.0,0.000422973185778,0.00224616308697,-0.00026049464941,0.01,0.0,0.0,0.0,0.01,0.0,0.0,0.0,0.01,-4.77516126633,2.05321073532,-8.00616931915,0.01,0.0,0.0,0.0,0.01,0.0,0.0,0.0,0.01
1585291168376678441,46041,1585291168375517758,foot_imu_link,0.233273655176,0.162217900157,0.507843196392,-0.813242852688,0.0,0.0,0.0,0.0,0.0,0.0,0.0,0.0,0.0,0.00283923279494,0.00291364081204,-0.00169303407893,0.01,0.0,0.0,0.0,0.01,0.0,0.0,0.0,0.01,-4.77662801743,2.05993151665,-8.03499507904,0.01,0.0,0.0,0.0,0.01,0.0,0.0,0.0,0.01
1585291168390982837,46042,1585291168390437306,foot_imu_link,0.233243465424,0.162231579423,0.50785702467,-0.813240230083,0.0,0.0,0.0,0.0,0.0,0.0,0.0,0.0,0.0,0.00426054466516,-0.000790970632806,-0.00326892733574,0.01,0.0,0.0,0.0,0.01,0.0,0.0,0.0,0.01,-4.7814912796,2.06742668152,-8.01222419739,0.01,0.0,0.0,0.0,0.01,0.0,0.0,0.0,0.01
1585291168428858047,46043,1585291168427499074,foot_imu_link,0.233209833503,0.162215158343,0.507877230644,-0.813240587711,0.0,0.0,0.0,0.0,0.0,0.0,0.0,0.0,0.0,-0.00158814154565,1.71532592503e-05,-9.53869894147e-05,0.01,0.0,0.0,0.0,0.01,0.0,0.0,0.0,0.01,-4.76192951202,2.07106494904,-8.0025844574,0.01,0.0,0.0,0.0,0.01,0.0,0.0,0.0,0.01
1585291168443147017,46044,1585291168442397383,foot_imu_link,0.233218550682,0.162192225456,0.507868170738,-0.813248276711,0.0,0.0,0.0,0.0,0.0,0.0,0.0,0.0,0.0,-0.00287889782339,0.00253211613744,0.00216794665903,0.01,0.0,0.0,0.0,0.01,0.0,0.0,0.0,0.01,-4.78636455536,2.07718873024,-8.03858947754,0.01,0.0,0.0,0.0,0.01,0.0,0.0,0.0,0.01
1585291168459723744,46045,1585291168459136327,foot_imu_link,0.233232200146,0.162160366774,0.507868528366,-0.813250541687,0.0,0.0,0.0,0.0,0.0,0.0,0.0,0.0,0.0,-0.00278220977634,0.00227301148698,0.00250146910548,0.01,0.0,0.0,0.0,0.01,0.0,0.0,0.0,0.01,-4.75901937485,2.05087471008,-8.03916549683,0.01,0.0,0.0,0.0,0.01,0.0,0.0,0.0,0.01
1585291168475866648,46046,1585291168475307031,foot_imu_link,0.233239382505,0.162113621831,0.507879555225,-0.81325083971,0.0,0.0,0.0,0.0,0.0,0.0,0.0,0.0,0.0,-0.000931458547711,0.00442749448121,0.00012003723532,0.01,0.0,0.0,0.0,0.01,0.0,0.0,0.0,0.01,-4.75624275208,2.05036783218,-8.00735282898,0.01,0.0,0.0,0.0,0.01,0.0,0.0,0.0,0.01
1585291168490775428,46047,1585291168490111959,foot_imu_link,0.233256325126,0.16205856204,0.507895052433,-0.813247263432,0.0,0.0,0.0,0.0,0.0,0.0,0.0,0.0,0.0,-0.00702612008899,0.00635167304426,0.00210225675255,0.01,0.0,0.0,0.0,0.01,0.0,0.0,0.0,0.01,-4.83237075806,2.04823613167,-8.03364944458,0.01,0.0,0.0,0.0,0.01,0.0,0.0,0.0,0.01
1585291168506097290,46048,1585291168505519337,foot_imu_link,0.233269736171,0.16199311614,0.507918655872,-0.8132417202,0.0,0.0,0.0,0.0,0.0,0.0,0.0,0.0,0.0,-0.0065994001925,0.00611313665286,0.00115638319403,0.01,0.0,0.0,0.0,0.01,0.0,0.0,0.0,0.01,-4.76399755478,2.05149245262,-8.02982997894,0.01,0.0,0.0,0.0,0.01,0.0,0.0,0.0,0.01
1585291168527887534,46049,1585291168527346787,foot_imu_link,0.233272865415,0.161934792995,0.507935464382,-0.813241958618,0.0,0.0,0.0,0.0,0.0,0.0,0.0,0.0,0.0,-0.00183377414942,0.00382543634623,0.00177676510066,0.01,0.0,0.0,0.0,0.01,0.0,0.0,0.0,0.01,-4.79094219208,2.0387866497,-7.97671413422,0.01,0.0,0.0,0.0,0.01,0.0,0.0,0.0,0.01
1585291168542865957,46050,1585291168542293335,foot_imu_link,0.233265995979,0.161925122142,0.507944226265,-0.813240408897,0.0,0.0,0.0,0.0,0.0,0.0,0.0,0.0,0.0,0.00256917253137,0.000429592793807,-0.000245344359428,0.01,0.0,0.0,0.0,0.01,0.0,0.0,0.0,0.01,-4.77288150787,2.06128787994,-8.00590419769,0.01,0.0,0.0,0.0,0.01,0.0,0.0,0.0,0.01
1585291168558353423,46051,1585291168557804866,foot_imu_link,0.233246251941,0.16193857789,0.507943332195,-0.813243985176,0.0,0.0,0.0,0.0,0.0,0.0,0.0,0.0,0.0,0.0039682732895,-0.000850766373333,-0.00134245795198,0.01,0.0,0.0,0.0,0.01,0.0,0.0,0.0,0.01,-4.77463817596,2.02917766571,-8.02101135254,0.01,0.0,0.0,0.0,0.01,0.0,0.0,0.0,0.01
1585291168566832039,46052,1585291168566118254,foot_imu_link,0.233230665326,0.161956161261,0.507938981056,-0.813247621059,0.0,0.0,0.0,0.0,0.0,0.0,0.0,0.0,0.0,0.0035107312724,-0.00214476464316,0.000195455271751,0.01,0.0,0.0,0.0,0.01,0.0,0.0,0.0,0.01,-4.76716279984,2.05232739449,-7.98855781555,0.01,0.0,0.0,0.0,0.01,0.0,0.0,0.0,0.01
1585291168590537463,46053,1585291168589974794,foot_imu_link,0.233179882169,0.16201646626,0.507937908173,-0.813250780106,0.0,0.0,0.0,0.0,0.0,0.0,0.0,0.0,0.0,0.0067663025111,-0.00373921962455,-0.00340512231924,0.01,0.0,0.0,0.0,0.01,0.0,0.0,0.0,0.01,-4.75518608093,2.04763960838,-7.99784326553,0.01,0.0,0.0,0.0,0.01,0.0,0.0,0.0,0.01
1585291168605695270,46054,1585291168605158280,foot_imu_link,0.233138263226,0.162072077394,0.507937192917,-0.813252151012,0.0,0.0,0.0,0.0,0.0,0.0,0.0,0.0,0.0,0.00894107297063,-0.00367500586435,-0.00254997122101,0.01,0.0,0.0,0.0,0.01,0.0,0.0,0.0,0.01,-4.78327941895,2.0573952198,-8.00489044189,0.01,0.0,0.0,0.0,0.01,0.0,0.0,0.0,0.01
1585291168643163548,46055,1585291168642111648,foot_imu_link,0.233014702797,0.162242844701,0.507945716381,-0.813248217106,0.0,0.0,0.0,0.0,0.0,0.0,0.0,0.0,0.0,0.0121620018035,-0.00710340077057,-0.004329117015,0.01,0.0,0.0,0.0,0.01,0.0,0.0,0.0,0.01,-4.77110910416,2.02929520607,-8.021692276,0.01,0.0,0.0,0.0,0.01,0.0,0.0,0.0,0.01
1585291168659110027,46056,1585291168657478512,foot_imu_link,0.232951536775,0.162349253893,0.507939636707,-0.813248872757,0.0,0.0,0.0,0.0,0.0,0.0,0.0,0.0,0.0,0.0145380226895,-0.00737981311977,-0.00344269862399,0.01,0.0,0.0,0.0,0.01,0.0,0.0,0.0,0.01,-4.79054498672,2.03498578072,-8.0132188797,0.01,0.0,0.0,0.0,0.01,0.0,0.0,0.0,0.01
1585291168675768010,46057,1585291168674016746,foot_imu_link,0.232895895839,0.162450432777,0.507934272289,-0.813247919083,0.0,0.0,0.0,0.0,0.0,0.0,0.0,0.0,0.0,0.0130480146036,-0.00919872988015,-0.00371139729396,0.01,0.0,0.0,0.0,0.01,0.0,0.0,0.0,0.01,-4.7472858429,2.07390713692,-8.01839351654,0.01,0.0,0.0,0.0,0.01,0.0,0.0,0.0,0.01
1585291168690377879,46058,1585291168689822155,foot_imu_link,0.232815697789,0.162589043379,0.507931888103,-0.813244640827,0.0,0.0,0.0,0.0,0.0,0.0,0.0,0.0,0.0,0.0122803691775,-0.00619704136625,-0.00539590464905,0.01,0.0,0.0,0.0,0.01,0.0,0.0,0.0,0.01,-4.80218458176,2.08050632477,-7.99069309235,0.01,0.0,0.0,0.0,0.01,0.0,0.0,0.0,0.01
1585291168705710659,46059,1585291168705170079,foot_imu_link,0.232757925987,0.162680238485,0.507948756218,-0.81323248148,0.0,0.0,0.0,0.0,0.0,0.0,0.0,0.0,0.0,0.0101318070665,-0.00439033610746,-0.00730692222714,0.01,0.0,0.0,0.0,0.01,0.0,0.0,0.0,0.01,-4.80052423477,2.03831672668,-8.02153778076,0.01,0.0,0.0,0.0,0.01,0.0,0.0,0.0,0.01
1585291168720700971,46060,1585291168720142311,foot_imu_link,0.232705250382,0.162758305669,0.507962286472,-0.813223421574,0.0,0.0,0.0,0.0,0.0,0.0,0.0,0.0,0.0,0.00792326126248,-0.00383714376949,-0.00515119777992,0.01,0.0,0.0,0.0,0.01,0.0,0.0,0.0,0.01,-4.81955242157,2.01454734802,-8.04322910309,0.01,0.0,0.0,0.0,0.01,0.0,0.0,0.0,0.01
1585291168743810928,46061,1585291168741904930,foot_imu_link,0.232657104731,0.162846207619,0.507964670658,-0.813218057156,0.0,0.0,0.0,0.0,0.0,0.0,0.0,0.0,0.0,0.00515109766275,-0.00544204842299,-0.00202003587037,0.01,0.0,0.0,0.0,0.01,0.0,0.0,0.0,0.01,-4.7843708992,2.03601813316,-8.00656032562,0.01,0.0,0.0,0.0,0.01,0.0,0.0,0.0,0.01
1585291168758852150,46062,1585291168757300241,foot_imu_link,0.232636764646,0.162901327014,0.507961571217,-0.813214838505,0.0,0.0,0.0,0.0,0.0,0.0,0.0,0.0,0.0,0.00521827954799,-0.00624097837135,-0.00236927857623,0.01,0.0,0.0,0.0,0.01,0.0,0.0,0.0,0.01,-4.79752206802,2.01222324371,-8.03967094421,0.01,0.0,0.0,0.0,0.01,0.0,0.0,0.0,0.01
1585291168773240856,46063,1585291168772315898,foot_imu_link,0.232616633177,0.162955328822,0.507960677147,-0.813210368156,0.0,0.0,0.0,0.0,0.0,0.0,0.0,0.0,0.0,0.00496560521424,-0.00301865604706,-0.000952920177951,0.01,0.0,0.0,0.0,0.01,0.0,0.0,0.0,0.01,-4.80930042267,2.00616574287,-8.03105449677,0.01,0.0,0.0,0.0,0.01,0.0,0.0,0.0,0.01
1585291168789814315,46064,1585291168788918288,foot_imu_link,0.23259370029,0.162988454103,0.50796186924,-0.813209533691,0.0,0.0,0.0,0.0,0.0,0.0,0.0,0.0,0.0,0.00184962619096,-0.00159567350056,-0.00141642964445,0.01,0.0,0.0,0.0,0.01,0.0,0.0,0.0,0.01,-4.8033490181,2.03633451462,-8.03695678711,0.01,0.0,0.0,0.0,0.01,0.0,0.0,0.0,0.01
1585291168805514826,46065,1585291168805019335,foot_imu_link,0.232592090964,0.162997528911,0.507974982262,-0.813199996948,0.0,0.0,0.0,0.0,0.0,0.0,0.0,0.0,0.0,-0.000443127006292,0.000192277118913,-0.00227187247947,0.01,0.0,0.0,0.0,0.01,0.0,0.0,0.0,0.01,-4.83398580551,2.04691553116,-8.0148897171,0.01,0.0,0.0,0.0,0.01,0.0,0.0,0.0,0.01
1585291168820410084,46066,1585291168819888303,foot_imu_link,0.232594639063,0.162989407778,0.50799036026,-0.81319129467,0.0,0.0,0.0,0.0,0.0,0.0,0.0,0.0,0.0,-0.00170192867517,-0.000732476357371,-0.00303449318744,0.01,0.0,0.0,0.0,0.01,0.0,0.0,0.0,0.01,-4.77792072296,2.02943944931,-8.0380115509,0.01,0.0,0.0,0.0,0.01,0.0,0.0,0.0,0.01
1585291168858566957,46067,1585291168857008757,foot_imu_link,0.232595965266,0.162981420755,0.508043289185,-0.81315946579,0.0,0.0,0.0,0.0,0.0,0.0,0.0,0.0,0.0,-8.88695940375e-05,-3.06192232529e-05,-0.00239528971724,0.01,0.0,0.0,0.0,0.01,0.0,0.0,0.0,0.01,-4.78306388855,2.03302764893,-8.02159309387,0.01,0.0,0.0,0.0,0.01,0.0,0.0,0.0,0.01
1585291168872949495,46068,1585291168872031836,foot_imu_link,0.232599943876,0.162972077727,0.508071422577,-0.813142597675,0.0,0.0,0.0,0.0,0.0,0.0,0.0,0.0,0.0,-0.00230258703232,0.00258231721818,-0.00313606252894,0.01,0.0,0.0,0.0,0.01,0.0,0.0,0.0,0.01,-4.80013513565,2.05416321754,-7.9998717308,0.01,0.0,0.0,0.0,0.01,0.0,0.0,0.0,0.01
1585291168890699669,46069,1585291168888691003,foot_imu_link,0.232627406716,0.162958353758,0.508091151714,-0.813125193119,0.0,0.0,0.0,0.0,0.0,0.0,0.0,0.0,0.0,-0.00496629346162,0.0011318475008,-0.00280566466972,0.01,0.0,0.0,0.0,0.01,0.0,0.0,0.0,0.01,-4.81351661682,2.01270437241,-8.00827884674,0.01,0.0,0.0,0.0,0.01,0.0,0.0,0.0,0.01
1585291168906851025,46070,1585291168904851692,foot_imu_link,0.232663035393,0.162888169289,0.508119225502,-0.813111424446,0.0,0.0,0.0,0.0,0.0,0.0,0.0,0.0,0.0,-0.00619651470333,0.00495453039184,-5.41843473911e-06,0.01,0.0,0.0,0.0,0.01,0.0,0.0,0.0,0.01,-4.79609012604,2.01407122612,-8.03527832031,0.01,0.0,0.0,0.0,0.01,0.0,0.0,0.0,0.01
1585291168920545503,46071,1585291168919818939,foot_imu_link,0.232678622007,0.162853136659,0.508136987686,-0.813102900982,0.0,0.0,0.0,0.0,0.0,0.0,0.0,0.0,0.0,-0.00421704910696,0.00294314464554,-0.000452899839729,0.01,0.0,0.0,0.0,0.01,0.0,0.0,0.0,0.01,-4.78184509277,2.01912927628,-7.99765729904,0.01,0.0,0.0,0.0,0.01,0.0,0.0,0.0,0.01
1585291168936893677,46072,1585291168935425271,foot_imu_link,0.232689604163,0.162827655673,0.508154213428,-0.813094139099,0.0,0.0,0.0,0.0,0.0,0.0,0.0,0.0,0.0,-0.00562487915158,0.00259295850992,0.00218107085675,0.01,0.0,0.0,0.0,0.01,0.0,0.0,0.0,0.01,-4.83976078033,2.04074263573,-8.05431556702,0.01,0.0,0.0,0.0,0.01,0.0,0.0,0.0,0.01
1585291168957327682,46073,1585291168956726243,foot_imu_link,0.232773885131,0.162706449628,0.508168339729,-0.813085436821,0.0,0.0,0.0,0.0,0.0,0.0,0.0,0.0,0.0,-0.0185849927366,0.0110097816214,0.00418228888884,0.01,0.0,0.0,0.0,0.01,0.0,0.0,0.0,0.01,-4.83502101898,2.03771829605,-8.04804229736,0.01,0.0,0.0,0.0,0.01,0.0,0.0,0.0,0.01
1585291168973380793,46074,1585291168971781256,foot_imu_link,0.232860848308,0.16254670918,0.508185565472,-0.813081741333,0.0,0.0,0.0,0.0,0.0,0.0,0.0,0.0,0.0,-0.0200538411736,0.010500581935,0.00319404993206,0.01,0.0,0.0,0.0,0.01,0.0,0.0,0.0,0.01,-4.74691677094,2.02160167694,-7.98102521896,0.01,0.0,0.0,0.0,0.01,0.0,0.0,0.0,0.01
1585291168988548499,46075,1585291168987305826,foot_imu_link,0.232930257916,0.162400782108,0.508212506771,-0.813074171543,0.0,0.0,0.0,0.0,0.0,0.0,0.0,0.0,0.0,-0.0162852220237,0.00823510345072,0.00551265478134,0.01,0.0,0.0,0.0,0.01,0.0,0.0,0.0,0.01,-4.77287578583,2.01818370819,-7.98889446259,0.01,0.0,0.0,0.0,0.01,0.0,0.0,0.0,0.01
1585291169004735720,46076,1585291169003848608,foot_imu_link,0.232995316386,0.162293732166,0.508212983608,-0.813076555729,0.0,0.0,0.0,0.0,0.0,0.0,0.0,0.0,0.0,-0.0136372931302,0.00725891906768,0.00384978251532,0.01,0.0,0.0,0.0,0.01,0.0,0.0,0.0,0.01,-4.7472448349,2.07699108124,-8.0031747818,0.01,0.0,0.0,0.0,0.01,0.0,0.0,0.0,0.01
1585291169021418325,46077,1585291169020016972,foot_imu_link,0.233056500554,0.162171170115,0.508232831955,-0.813071131706,0.0,0.0,0.0,0.0,0.0,0.0,0.0,0.0,0.0,-0.00837040320039,0.00637173419818,0.00225518736988,0.01,0.0,0.0,0.0,0.01,0.0,0.0,0.0,0.01,-4.73882770538,2.06562709808,-7.99198961258,0.01,0.0,0.0,0.0,0.01,0.0,0.0,0.0,0.01
1585291169037664180,46078,1585291169035169560,foot_imu_link,0.233078807592,0.162129476666,0.508235931396,-0.813071131706,0.0,0.0,0.0,0.0,0.0,0.0,0.0,0.0,0.0,-0.00323193240911,0.00259916228242,0.00017386302352,0.01,0.0,0.0,0.0,0.01,0.0,0.0,0.0,0.01,-4.76740646362,2.06054925919,-7.98401451111,0.01,0.0,0.0,0.0,0.01,0.0,0.0,0.0,0.01
1585291169042777263,46079,1585291169042267281,foot_imu_link,0.233097344637,0.162100464106,0.508236825466,-0.813070952892,0.0,0.0,0.0,0.0,0.0,0.0,0.0,0.0,0.0,-0.00641211587936,0.00390512286685,0.00145993940532,0.01,0.0,0.0,0.0,0.01,0.0,0.0,0.0,0.01,-4.82818698883,2.03720855713,-7.99582099915,0.01,0.0,0.0,0.0,0.01,0.0,0.0,0.0,0.01
1585291169072183418,46080,1585291169071619762,foot_imu_link,0.23315051198,0.161998674273,0.508241295815,-0.813073217869,0.0,0.0,0.0,0.0,0.0,0.0,0.0,0.0,0.0,-0.0095763001591,0.00679225474596,0.00111923320219,0.01,0.0,0.0,0.0,0.01,0.0,0.0,0.0,0.01,-4.79742717743,2.05691313744,-8.01417350769,0.01,0.0,0.0,0.0,0.01,0.0,0.0,0.0,0.01
1585291169088261090,46081,1585291169087019808,foot_imu_link,0.233181640506,0.161922752857,0.508248806,-0.81307476759,0.0,0.0,0.0,0.0,0.0,0.0,0.0,0.0,0.0,-0.00802442524582,0.0077679650858,0.00214615371078,0.01,0.0,0.0,0.0,0.01,0.0,0.0,0.0,0.01,-4.78405189514,2.0534760952,-8.00840187073,0.01,0.0,0.0,0.0,0.01,0.0,0.0,0.0,0.01
1585291169104075444,46082,1585291169103522636,foot_imu_link,0.233196303248,0.161869466305,0.508248746395,-0.813081204891,0.0,0.0,0.0,0.0,0.0,0.0,0.0,0.0,0.0,-0.00396694522351,0.0032095592469,-9.71788540483e-05,0.01,0.0,0.0,0.0,0.01,0.0,0.0,0.0,0.01,-4.75287055969,2.04484033585,-7.9949760437,0.01,0.0,0.0,0.0,0.01,0.0,0.0,0.0,0.01
1585291169120536800,46083,1585291169119595623,foot_imu_link,0.233200728893,0.16182769835,0.508263111115,-0.813079297543,0.0,0.0,0.0,0.0,0.0,0.0,0.0,0.0,0.0,-0.00234844349325,0.00285650161095,0.000954418908805,0.01,0.0,0.0,0.0,0.01,0.0,0.0,0.0,0.01,-4.75949764252,2.0438683033,-8.01775074005,0.01,0.0,0.0,0.0,0.01,0.0,0.0,0.0,0.01
1585291169136437399,46084,1585291169134976446,foot_imu_link,0.233196645975,0.161808133125,0.508268117905,-0.813081204891,0.0,0.0,0.0,0.0,0.0,0.0,0.0,0.0,0.0,-0.00170658249408,0.00174369569868,-6.21094368398e-05,0.01,0.0,0.0,0.0,0.01,0.0,0.0,0.0,0.01,-4.77987861633,2.06766629219,-8.03264808655,0.01,0.0,0.0,0.0,0.01,0.0,0.0,0.0,0.01
1585291169150899055,46085,1585291169149823737,foot_imu_link,0.233190819621,0.161802634597,0.508277714252,-0.813077926636,0.0,0.0,0.0,0.0,0.0,0.0,0.0,0.0,0.0,0.000466687604785,0.00220873067155,-0.00140171637759,0.01,0.0,0.0,0.0,0.01,0.0,0.0,0.0,0.01,-4.78800821304,2.04830217361,-7.9968290329,0.01,0.0,0.0,0.0,0.01,0.0,0.0,0.0,0.01
1585291169171993436,46086,1585291169171395360,foot_imu_link,0.233183458447,0.161815926433,0.508297026157,-0.813065350056,0.0,0.0,0.0,0.0,0.0,0.0,0.0,0.0,0.0,0.00126511324197,-0.000922489911318,-0.00266816746444,0.01,0.0,0.0,0.0,0.01,0.0,0.0,0.0,0.01,-4.80114269257,2.05537557602,-8.01446437836,0.01,0.0,0.0,0.0,0.01,0.0,0.0,0.0,0.01
1585291169187455792,46087,1585291169186712510,foot_imu_link,0.233170971274,0.161821976304,0.508316397667,-0.813055574894,0.0,0.0,0.0,0.0,0.0,0.0,0.0,0.0,0.0,0.00125724449754,-0.000584345194511,-0.00320868846029,0.01,0.0,0.0,0.0,0.01,0.0,0.0,0.0,0.01,-4.74695968628,2.04142665863,-8.01251029968,0.01,0.0,0.0,0.0,0.01,0.0,0.0,0.0,0.01
1585291169202761628,46088,1585291169201748368,foot_imu_link,0.23315680027,0.161851063371,0.508337318897,-0.813040852547,0.0,0.0,0.0,0.0,0.0,0.0,0.0,0.0,0.0,0.0034440793097,-0.00284571596421,-0.00339641794562,0.01,0.0,0.0,0.0,0.01,0.0,0.0,0.0,0.01,-4.753241539,2.03217029572,-8.03377437592,0.01,0.0,0.0,0.0,0.01,0.0,0.0,0.0,0.01
1585291169219137486,46089,1585291169218530453,foot_imu_link,0.233144745231,0.161885589361,0.508341133595,-0.813035011292,0.0,0.0,0.0,0.0,0.0,0.0,0.0,0.0,0.0,0.000911937095225,-0.00246077217162,-0.00176885700785,0.01,0.0,0.0,0.0,0.01,0.0,0.0,0.0,0.01,-4.82207679749,2.05165958405,-8.04066371918,0.01,0.0,0.0,0.0,0.01,0.0,0.0,0.0,0.01
1585291169235419759,46090,1585291169234762935,foot_imu_link,0.233142957091,0.161912739277,0.508355379105,-0.813021183014,0.0,0.0,0.0,0.0,0.0,0.0,0.0,0.0,0.0,0.0019172495231,-0.000730513187591,-0.00287965103053,0.01,0.0,0.0,0.0,0.01,0.0,0.0,0.0,0.01,-4.78759336472,2.02473974228,-8.03324127197,0.01,0.0,0.0,0.0,0.01,0.0,0.0,0.0,0.01
1585291169251124668,46091,1585291169249617840,foot_imu_link,0.233121171594,0.161929145455,0.508358716965,-0.813022136688,0.0,0.0,0.0,0.0,0.0,0.0,0.0,0.0,0.0,0.00308503210545,8.66888731252e-05,-0.0016159680672,0.01,0.0,0.0,0.0,0.01,0.0,0.0,0.0,0.01,-4.78174257278,2.06581544876,-8.01647186279,0.01,0.0,0.0,0.0,0.01,0.0,0.0,0.0,0.01
1585291169265665801,46092,1585291169264951842,foot_imu_link,0.233108133078,0.161953225732,0.508370697498,-0.813013553619,0.0,0.0,0.0,0.0,0.0,0.0,0.0,0.0,0.0,0.00515990145504,-0.00112992094364,-0.00241239438765,0.01,0.0,0.0,0.0,0.01,0.0,0.0,0.0,0.01,-4.77707576752,2.03616070747,-8.01256847382,0.01,0.0,0.0,0.0,0.01,0.0,0.0,0.0,0.01
1585291169287005434,46093,1585291169286433335,foot_imu_link,0.233073621988,0.162017822266,0.508389472961,-0.812998890877,0.0,0.0,0.0,0.0,0.0,0.0,0.0,0.0,0.0,0.00614743307233,-0.00318541191518,-0.00396294286475,0.01,0.0,0.0,0.0,0.01,0.0,0.0,0.0,0.01,-4.7993683815,2.05618810654,-7.98116254807,0.01,0.0,0.0,0.0,0.01,0.0,0.0,0.0,0.01
1585291169302272218,46094,1585291169301705146,foot_imu_link,0.233044967055,0.162059649825,0.508396029472,-0.812994599342,0.0,0.0,0.0,0.0,0.0,0.0,0.0,0.0,0.0,0.00616061687469,-0.00204414245673,-0.00366432219744,0.01,0.0,0.0,0.0,0.01,0.0,0.0,0.0,0.01,-4.82018947601,2.07047533989,-7.99638271332,0.01,0.0,0.0,0.0,0.01,0.0,0.0,0.0,0.01
1585291169318869810,46095,1585291169318278626,foot_imu_link,0.233016386628,0.162091702223,0.508414447308,-0.812984883785,0.0,0.0,0.0,0.0,0.0,0.0,0.0,0.0,0.0,0.00617573596537,-0.00192566995975,-0.00433874316514,0.01,0.0,0.0,0.0,0.01,0.0,0.0,0.0,0.01,-4.77182435989,2.04591417313,-8.02605056763,0.01,0.0,0.0,0.0,0.01,0.0,0.0,0.0,0.01
1585291169334762638,46096,1585291169334237462,foot_imu_link,0.232966974378,0.162155687809,0.508432209492,-0.812975168228,0.0,0.0,0.0,0.0,0.0,0.0,0.0,0.0,0.0,0.00885339640081,-0.00322215328924,-0.00473019387573,0.01,0.0,0.0,0.0,0.01,0.0,0.0,0.0,0.01,-4.78893995285,2.02959084511,-8.01822757721,0.01,0.0,0.0,0.0,0.01,0.0,0.0,0.0,0.01
1585291169350283406,46097,1585291169349153549,foot_imu_link,0.232922643423,0.162224858999,0.508432745934,-0.812973678112,0.0,0.0,0.0,0.0,0.0,0.0,0.0,0.0,0.0,0.00981935672462,-0.00388782285154,-0.00320519786328,0.01,0.0,0.0,0.0,0.01,0.0,0.0,0.0,0.01,-4.77140569687,2.01069641113,-8.03736782074,0.01,0.0,0.0,0.0,0.01,0.0,0.0,0.0,0.01
1585291169365801483,46098,1585291169364692736,foot_imu_link,0.232876986265,0.162303686142,0.508429288864,-0.812973320484,0.0,0.0,0.0,0.0,0.0,0.0,0.0,0.0,0.0,0.0102152284235,-0.00438347412273,-0.00312021607533,0.01,0.0,0.0,0.0,0.01,0.0,0.0,0.0,0.01,-4.75683116913,2.02695250511,-8.02524852753,0.01,0.0,0.0,0.0,0.01,0.0,0.0,0.0,0.01
1585291169387118975,46099,1585291169386498190,foot_imu_link,0.232803016901,0.162425041199,0.508428215981,-0.812970876694,0.0,0.0,0.0,0.0,0.0,0.0,0.0,0.0,0.0,0.0133471237496,-0.00597242917866,-0.00390833988786,0.01,0.0,0.0,0.0,0.01,0.0,0.0,0.0,0.01,-4.78183364868,2.03743195534,-7.99741363525,0.01,0.0,0.0,0.0,0.01,0.0,0.0,0.0,0.01
1585291169402058546,46100,1585291169401470517,foot_imu_link,0.232750073075,0.162520989776,0.508418858051,-0.812972784042,0.0,0.0,0.0,0.0,0.0,0.0,0.0,0.0,0.0,0.0124011542648,-0.00638787308708,-0.00253435084596,0.01,0.0,0.0,0.0,0.01,0.0,0.0,0.0,0.01,-4.8074798584,2.02780151367,-8.00790309906,0.01,0.0,0.0,0.0,0.01,0.0,0.0,0.0,0.01
1585291169417413161,46101,1585291169416710221,foot_imu_link,0.232698783278,0.16260586679,0.508415699005,-0.812972426414,0.0,0.0,0.0,0.0,0.0,0.0,0.0,0.0,0.0,0.00947299599648,-0.00468064378947,-0.00347033049911,0.01,0.0,0.0,0.0,0.01,0.0,0.0,0.0,0.01,-4.82343292236,2.02909350395,-8.03629493713,0.01,0.0,0.0,0.0,0.01,0.0,0.0,0.0,0.01
1585291169434266736,46102,1585291169433647486,foot_imu_link,0.232679545879,0.162636995316,0.508438229561,-0.812957644463,0.0,0.0,0.0,0.0,0.0,0.0,0.0,0.0,0.0,0.00369652081281,-0.000213932144106,-0.00355491461232,0.01,0.0,0.0,0.0,0.01,0.0,0.0,0.0,0.01,-4.80601215363,2.05574321747,-8.01116752625,0.01,0.0,0.0,0.0,0.01,0.0,0.0,0.0,0.01
1585291169449787646,46103,1585291169449145900,foot_imu_link,0.232643187046,0.162666901946,0.50845760107,-0.812949895859,0.0,0.0,0.0,0.0,0.0,0.0,0.0,0.0,0.0,0.00353560131043,0.000435509544332,-0.00535170175135,0.01,0.0,0.0,0.0,0.01,0.0,0.0,0.0,0.01,-4.78546571732,2.04574418068,-8.04533290863,0.01,0.0,0.0,0.0,0.01,0.0,0.0,0.0,0.01
1585291169465005483,46104,1585291169464449577,foot_imu_link,0.232613161206,0.162696018815,0.508475661278,-0.812941431999,0.0,0.0,0.0,0.0,0.0,0.0,0.0,0.0,0.0,0.00480662658811,-0.00159325706773,-0.00421987194568,0.01,0.0,0.0,0.0,0.01,0.0,0.0,0.0,0.01,-4.78437662125,2.01827073097,-8.04918384552,0.01,0.0,0.0,0.0,0.01,0.0,0.0,0.0,0.01
1585291169480787014,46105,1585291169479939395,foot_imu_link,0.232591688633,0.162722587585,0.508496105671,-0.812929332256,0.0,0.0,0.0,0.0,0.0,0.0,0.0,0.0,0.0,0.0034587206319,-0.00174390675966,-0.00324956281111,0.01,0.0,0.0,0.0,0.01,0.0,0.0,0.0,0.01,-4.78054428101,2.03624844551,-8.01683235168,0.01,0.0,0.0,0.0,0.01,0.0,0.0,0.0,0.01
1585291169502227554,46106,1585291169501335882,foot_imu_link,0.232564359903,0.162754580379,0.508511781693,-0.812921047211,0.0,0.0,0.0,0.0,0.0,0.0,0.0,0.0,0.0,0.00230143032968,-0.00232928851619,-0.00198774691671,0.01,0.0,0.0,0.0,0.01,0.0,0.0,0.0,0.01,-4.80369663239,2.02081346512,-8.03022575378,0.01,0.0,0.0,0.0,0.01,0.0,0.0,0.0,0.01
1585291169517197690,46107,1585291169516567670,foot_imu_link,0.232557326555,0.162757158279,0.508516728878,-0.812919437885,0.0,0.0,0.0,0.0,0.0,0.0,0.0,0.0,0.0,-0.000368692912161,0.00131159543525,0.000105683226138,0.01,0.0,0.0,0.0,0.01,0.0,0.0,0.0,0.01,-4.80363941193,2.05251526833,-8.01203918457,0.01,0.0,0.0,0.0,0.01,0.0,0.0,0.0,0.01
1585291169533824213,46108,1585291169533225125,foot_imu_link,0.232563048601,0.162748098373,0.508531093597,-0.812910676003,0.0,0.0,0.0,0.0,0.0,0.0,0.0,0.0,0.0,-0.00271704886109,0.000488217367092,-0.0011590141803,0.01,0.0,0.0,0.0,0.01,0.0,0.0,0.0,0.01,-4.79966068268,2.04825377464,-8.02927589417,0.01,0.0,0.0,0.0,0.01,0.0,0.0,0.0,0.01
1585291169565241058,46109,1585291169564226948,foot_imu_link,0.232598662376,0.162685915828,0.508562326431,-0.812893331051,0.0,0.0,0.0,0.0,0.0,0.0,0.0,0.0,0.0,-0.00640551745892,0.00243807304651,0.000640500336885,0.01,0.0,0.0,0.0,0.01,0.0,0.0,0.0,0.01,-4.7933921814,2.02936720848,-8.0133228302,0.01,0.0,0.0,0.0,0.01,0.0,0.0,0.0,0.01
1585291169579774369,46110,1585291169579192338,foot_imu_link,0.232628896832,0.162650197744,0.50856423378,-0.812890589237,0.0,0.0,0.0,0.0,0.0,0.0,0.0,0.0,0.0,-0.00392071902752,0.00181330309715,0.000626161228865,0.01,0.0,0.0,0.0,0.01,0.0,0.0,0.0,0.01,-4.78467178345,2.03429031372,-8.03136444092,0.01,0.0,0.0,0.0,0.01,0.0,0.0,0.0,0.01
1585291169601723681,46111,1585291169601118438,foot_imu_link,0.232654318213,0.162625297904,0.508573114872,-0.812882840633,0.0,0.0,0.0,0.0,0.0,0.0,0.0,0.0,0.0,-0.00344328489155,-3.62983264495e-05,-0.00046431645751,0.01,0.0,0.0,0.0,0.01,0.0,0.0,0.0,0.01,-4.79497623444,2.04123735428,-7.98808145523,0.01,0.0,0.0,0.0,0.01,0.0,0.0,0.0,0.01
1585291169616966220,46112,1585291169616332949,foot_imu_link,0.232658103108,0.162611708045,0.508570730686,-0.812885940075,0.0,0.0,0.0,0.0,0.0,0.0,0.0,0.0,0.0,-5.11724501848e-05,2.87290895358e-05,0.000186319928616,0.01,0.0,0.0,0.0,0.01,0.0,0.0,0.0,0.01,-4.78954601288,2.03650784492,-8.02508640289,0.01,0.0,0.0,0.0,0.01,0.0,0.0,0.0,0.01
1585291169631983720,46113,1585291169631387587,foot_imu_link,0.232657507062,0.162614345551,0.508573651314,-0.812883734703,0.0,0.0,0.0,0.0,0.0,0.0,0.0,0.0,0.0,0.000502485781908,-0.000819611013867,-0.000801214948297,0.01,0.0,0.0,0.0,0.01,0.0,0.0,0.0,0.01,-4.78308725357,2.028028965,-8.01738166809,0.01,0.0,0.0,0.0,0.01,0.0,0.0,0.0,0.01
1585291169648895102,46114,1585291169648260207,foot_imu_link,0.232650846243,0.162618219852,0.508577644825,-0.812882363796,0.0,0.0,0.0,0.0,0.0,0.0,0.0,0.0,0.0,0.00147562567145,-0.00030036381213,-0.00241777882911,0.01,0.0,0.0,0.0,0.01,0.0,0.0,0.0,0.01,-4.76241636276,2.04765844345,-8.03240013123,0.01,0.0,0.0,0.0,0.01,0.0,0.0,0.0,0.01
1585291169665082740,46115,1585291169664089447,foot_imu_link,0.232634991407,0.162624448538,0.508580565453,-0.812883853912,0.0,0.0,0.0,0.0,0.0,0.0,0.0,0.0,0.0,0.000419576652348,0.000510343292262,-0.000723330304027,0.01,0.0,0.0,0.0,0.01,0.0,0.0,0.0,0.01,-4.81356716156,2.03522372246,-8.04774856567,0.01,0.0,0.0,0.0,0.01,0.0,0.0,0.0,0.01
1585291169679955589,46116,1585291169679367223,foot_imu_link,0.232618272305,0.16261588037,0.508591651917,-0.81288343668,0.0,0.0,0.0,0.0,0.0,0.0,0.0,0.0,0.0,0.000633255578578,0.00206199940294,-0.000189759768546,0.01,0.0,0.0,0.0,0.01,0.0,0.0,0.0,0.01,-4.80115795135,2.0444984436,-8.03397655487,0.01,0.0,0.0,0.0,0.01,0.0,0.0,0.0,0.01
1585291169694806818,46117,1585291169694260054,foot_imu_link,0.23261743784,0.162603899837,0.508603274822,-0.812878727913,0.0,0.0,0.0,0.0,0.0,0.0,0.0,0.0,0.0,-0.00190275907516,0.00227262475528,-0.00102316727862,0.01,0.0,0.0,0.0,0.01,0.0,0.0,0.0,0.01,-4.79988861084,2.03298163414,-8.00587558746,0.01,0.0,0.0,0.0,0.01,0.0,0.0,0.0,0.01
1585291169716989277,46118,1585291169716150307,foot_imu_link,0.232620581985,0.162583962083,0.50863134861,-0.812864243984,0.0,0.0,0.0,0.0,0.0,0.0,0.0,0.0,0.0,-0.000957608222961,0.00185651495121,-0.00163279660046,0.01,0.0,0.0,0.0,0.01,0.0,0.0,0.0,0.01,-4.766913414,2.0293443203,-7.99350214005,0.01,0.0,0.0,0.0,0.01,0.0,0.0,0.0,0.01
1585291169732078012,46119,1585291169731339530,foot_imu_link,0.232615798712,0.162577837706,0.508653819561,-0.812852799892,0.0,0.0,0.0,0.0,0.0,0.0,0.0,0.0,0.0,-3.30926850438e-05,1.12080888357e-05,-0.0012265664991,0.01,0.0,0.0,0.0,0.01,0.0,0.0,0.0,0.01,-4.7884645462,2.04503273964,-8.03495311737,0.01,0.0,0.0,0.0,0.01,0.0,0.0,0.0,0.01
1585291169748853884,46120,1585291169748124133,foot_imu_link,0.232619300485,0.162570729852,0.508664250374,-0.812846660614,0.0,0.0,0.0,0.0,0.0,0.0,0.0,0.0,0.0,-0.00344159360975,0.00100536399987,0.000108712352812,0.01,0.0,0.0,0.0,0.01,0.0,0.0,0.0,0.01,-4.79740905762,2.02961206436,-7.99817466736,0.01,0.0,0.0,0.0,0.01,0.0,0.0,0.0,0.01
1585291169780703501,46121,1585291169779094731,foot_imu_link,0.232677921653,0.162494570017,0.508683621883,-0.81283301115,0.0,0.0,0.0,0.0,0.0,0.0,0.0,0.0,0.0,-0.00684788543731,0.00598417315632,-0.0010546897538,0.01,0.0,0.0,0.0,0.01,0.0,0.0,0.0,0.01,-4.80628108978,2.04043221474,-8.03127670288,0.01,0.0,0.0,0.0,0.01,0.0,0.0,0.0,0.01
1585291169794910400,46122,1585291169794196104,foot_imu_link,0.232700809836,0.162453487515,0.508688092232,-0.812831878662,0.0,0.0,0.0,0.0,0.0,0.0,0.0,0.0,0.0,-0.00505625177175,0.00254925480112,-0.000701775308698,0.01,0.0,0.0,0.0,0.01,0.0,0.0,0.0,0.01,-4.8039560318,2.01962018013,-8.00005340576,0.01,0.0,0.0,0.0,0.01,0.0,0.0,0.0,0.01
1585291169820170556,46123,1585291169815951782,foot_imu_link,0.232727736235,0.162419095635,0.508709073067,-0.812817931175,0.0,0.0,0.0,0.0,0.0,0.0,0.0,0.0,0.0,-0.00382998026907,0.00195271137636,-0.000799869652838,0.01,0.0,0.0,0.0,0.01,0.0,0.0,0.0,0.01,-4.78422021866,2.02323937416,-8.00311470032,0.01,0.0,0.0,0.0,0.01,0.0,0.0,0.0,0.01
1585291169834694738,46124,1585291169831222355,foot_imu_link,0.232732102275,0.162405222654,0.508720099926,-0.812812566757,0.0,0.0,0.0,0.0,0.0,0.0,0.0,0.0,0.0,-0.00219114124775,0.00121513742488,-0.00044710142538,0.01,0.0,0.0,0.0,0.01,0.0,0.0,0.0,0.01,-4.81253910065,2.02064824104,-8.01993656158,0.01,0.0,0.0,0.0,0.01,0.0,0.0,0.0,0.01
1585291169847322207,46125,1585291169846381327,foot_imu_link,0.232745543122,0.162380680442,0.508733272552,-0.8128054142,0.0,0.0,0.0,0.0,0.0,0.0,0.0,0.0,0.0,-0.00425376277417,0.00273264711723,0.000409679021686,0.01,0.0,0.0,0.0,0.01,0.0,0.0,0.0,0.01,-4.79309082031,2.03486084938,-8.08507823944,0.01,0.0,0.0,0.0,0.01,0.0,0.0,0.0,0.01
1585291169864340340,46126,1585291169862983217,foot_imu_link,0.232768371701,0.162324517965,0.508739590645,-0.812806069851,0.0,0.0,0.0,0.0,0.0,0.0,0.0,0.0,0.0,-0.00797458086163,0.00596558628604,0.000468998681754,0.01,0.0,0.0,0.0,0.01,0.0,0.0,0.0,0.01,-4.76953649521,2.04681324959,-8.01412010193,0.01,0.0,0.0,0.0,0.01,0.0,0.0,0.0,0.01
1585291169879990723,46127,1585291169878862265,foot_imu_link,0.232824832201,0.162216871977,0.50874632597,-0.812807202339,0.0,0.0,0.0,0.0,0.0,0.0,0.0,0.0,0.0,-0.0118106482551,0.00801136065274,0.00275770761073,0.01,0.0,0.0,0.0,0.01,0.0,0.0,0.0,0.01,-4.80344009399,2.02289485931,-8.02535629272,0.01,0.0,0.0,0.0,0.01,0.0,0.0,0.0,0.01
1585291169894919932,46128,1585291169893994159,foot_imu_link,0.232888609171,0.162094041705,0.508768320084,-0.812799632549,0.0,0.0,0.0,0.0,0.0,0.0,0.0,0.0,0.0,-0.0183554291725,0.00998852774501,0.00226471154019,0.01,0.0,0.0,0.0,0.01,0.0,0.0,0.0,0.01,-4.78682565689,2.08152770996,-8.01041603088,0.01,0.0,0.0,0.0,0.01,0.0,0.0,0.0,0.01
1585291169909491837,46129,1585291169908812886,foot_imu_link,0.232966527343,0.161948144436,0.508787095547,-0.812794685364,0.0,0.0,0.0,0.0,0.0,0.0,0.0,0.0,0.0,-0.020317081362,0.0104375770316,0.00526376860216,0.01,0.0,0.0,0.0,0.01,0.0,0.0,0.0,0.01,-4.78236293793,2.02439022064,-8.02135467529,0.01,0.0,0.0,0.0,0.01,0.0,0.0,0.0,0.01
1585291169931356053,46130,1585291169930603286,foot_imu_link,0.233103707433,0.161713391542,0.508808135986,-0.812788844109,0.0,0.0,0.0,0.0,0.0,0.0,0.0,0.0,0.0,-0.0247420817614,0.0122208753601,0.00635939557105,0.01,0.0,0.0,0.0,0.01,0.0,0.0,0.0,0.01,-4.76508045197,2.05473995209,-8.05564212799,0.01,0.0,0.0,0.0,0.01,0.0,0.0,0.0,0.01
1585291169946619433,46131,1585291169945928275,foot_imu_link,0.233308076859,0.161446332932,0.508850872517,-0.812756597996,0.0,0.0,0.0,0.0,0.0,0.0,0.0,0.0,0.0,-0.0300096683204,0.00418136967346,0.00324912276119,0.01,0.0,0.0,0.0,0.01,0.0,0.0,0.0,0.01,-4.86553812027,2.12172579765,-7.7368850708,0.01,0.0,0.0,0.0,0.01,0.0,0.0,0.0,0.01
1585291169963151256,46132,1585291169962571472,foot_imu_link,0.233402475715,0.161281555891,0.508857011795,-0.812758386135,0.0,0.0,0.0,0.0,0.0,0.0,0.0,0.0,0.0,-0.0209993906319,0.0115901501849,0.00702815549448,0.01,0.0,0.0,0.0,0.01,0.0,0.0,0.0,0.01,-4.78358364105,2.04375267029,-8.09366035461,0.01,0.0,0.0,0.0,0.01,0.0,0.0,0.0,0.01
1585291169993594260,46133,1585291169993361635,foot_imu_link,0.233697667718,0.160743698478,0.508869886398,-0.812771975994,0.0,0.0,0.0,0.0,0.0,0.0,0.0,0.0,0.0,-0.0298878643662,0.0182852074504,0.0112164337188,0.01,0.0,0.0,0.0,0.01,0.0,0.0,0.0,0.01,-4.71885633469,2.03141212463,-8.04479408264,0.01,0.0,0.0,0.0,0.01,0.0,0.0,0.0,0.01
1585291170008717197,46134,1585291170008482527,foot_imu_link,0.233824566007,0.160481706262,0.50887209177,-0.812785983086,0.0,0.0,0.0,0.0,0.0,0.0,0.0,0.0,0.0,-0.0285195745528,0.0212153382599,0.00985952839255,0.01,0.0,0.0,0.0,0.01,0.0,0.0,0.0,0.01,-4.68450307846,2.05612564087,-8.00253009796,0.01,0.0,0.0,0.0,0.01,0.0,0.0,0.0,0.01
1585291170046073963,46135,1585291170045713777,foot_imu_link,0.234059870243,0.160063937306,0.508867621422,-0.812803268433,0.0,0.0,0.0,0.0,0.0,0.0,0.0,0.0,0.0,-0.0268620736897,0.0128469448537,0.00753735657781,0.01,0.0,0.0,0.0,0.01,0.0,0.0,0.0,0.01,-4.72231864929,2.0915760994,-8.0492181778,0.01,0.0,0.0,0.0,0.01,0.0,0.0,0.0,0.01
1585291170061442423,46136,1585291170060950534,foot_imu_link,0.234215319157,0.159792527556,0.508891165257,-0.812797248363,0.0,0.0,0.0,0.0,0.0,0.0,0.0,0.0,0.0,-0.0337580740452,0.0224739070982,0.00897150672972,0.01,0.0,0.0,0.0,0.01,0.0,0.0,0.0,0.01,-4.80996465683,2.11348962784,-8.02451896667,0.01,0.0,0.0,0.0,0.01,0.0,0.0,0.0,0.01
1585291170079262406,46137,1585291170078047258,foot_imu_link,0.234351545572,0.159538984299,0.508904516697,-0.812799453735,0.0,0.0,0.0,0.0,0.0,0.0,0.0,0.0,0.0,-0.0337812080979,0.0200812369585,0.00847756117582,0.01,0.0,0.0,0.0,0.01,0.0,0.0,0.0,0.01,-4.72285556793,2.10262298584,-7.99082279205,0.01,0.0,0.0,0.0,0.01,0.0,0.0,0.0,0.01
1585291170094581970,46138,1585291170093788224,foot_imu_link,0.234523028135,0.15923191607,0.508942306042,-0.812786519527,0.0,0.0,0.0,0.0,0.0,0.0,0.0,0.0,0.0,-0.0222547892481,0.014477096498,0.00496577471495,0.01,0.0,0.0,0.0,0.01,0.0,0.0,0.0,0.01,-4.77394580841,2.05201721191,-8.02422332764,0.01,0.0,0.0,0.0,0.01,0.0,0.0,0.0,0.01
1585291170110068164,46139,1585291170109008175,foot_imu_link,0.23463383317,0.159033343196,0.5089635849,-0.81278014183,0.0,0.0,0.0,0.0,0.0,0.0,0.0,0.0,0.0,-0.0276927947998,0.0175016857684,0.00564240757376,0.01,0.0,0.0,0.0,0.01,0.0,0.0,0.0,0.01,-4.8216586113,2.15320849419,-8.02893257141,0.01,0.0,0.0,0.0,0.01,0.0,0.0,0.0,0.01
1585291170124633428,46140,1585291170124028900,foot_imu_link,0.234752699733,0.158783435822,0.508995473385,-0.812774717808,0.0,0.0,0.0,0.0,0.0,0.0,0.0,0.0,0.0,-0.034181881696,0.01846858114,0.00487809441984,0.01,0.0,0.0,0.0,0.01,0.0,0.0,0.0,0.01,-4.60103321075,2.10581922531,-8.02495288849,0.01,0.0,0.0,0.0,0.01,0.0,0.0,0.0,0.01
1585291170146437396,46141,1585291170145874593,foot_imu_link,0.234854400158,0.158586084843,0.509039342403,-0.812756240368,0.0,0.0,0.0,0.0,0.0,0.0,0.0,0.0,0.0,-0.0147563954815,0.0110163884237,0.00171840796247,0.01,0.0,0.0,0.0,0.01,0.0,0.0,0.0,0.01,-4.72028827667,2.11646175385,-8.04399013519,0.01,0.0,0.0,0.0,0.01,0.0,0.0,0.0,0.01
1585291170161921273,46142,1585291170160938517,foot_imu_link,0.234891355038,0.158512324095,0.509054481983,-0.812750577927,0.0,0.0,0.0,0.0,0.0,0.0,0.0,0.0,0.0,-0.00657334364951,0.00225770939142,0.000651739537716,0.01,0.0,0.0,0.0,0.01,0.0,0.0,0.0,0.01,-4.70269870758,2.07619571686,-7.97851896286,0.01,0.0,0.0,0.0,0.01,0.0,0.0,0.0,0.01
1585291170178265083,46143,1585291170177409959,foot_imu_link,0.234890982509,0.15850995481,0.509055554867,-0.812750458717,0.0,0.0,0.0,0.0,0.0,0.0,0.0,0.0,0.0,0.00274029746652,-0.000342942570569,0.000625382177532,0.01,0.0,0.0,0.0,0.01,0.0,0.0,0.0,0.01,-4.7403588295,2.08833026886,-8.00046539307,0.01,0.0,0.0,0.0,0.01,0.0,0.0,0.0,0.01
1585291170209175034,46144,1585291170208583024,foot_imu_link,0.234841346741,0.158605799079,0.509042799473,-0.812754154205,0.0,0.0,0.0,0.0,0.0,0.0,0.0,0.0,0.0,0.00684038456529,-0.00324974767864,-0.00165311759338,0.01,0.0,0.0,0.0,0.01,0.0,0.0,0.0,0.01,-4.70304012299,2.11504626274,-7.99274682999,0.01,0.0,0.0,0.0,0.01,0.0,0.0,0.0,0.01
1585291170224294223,46145,1585291170223727022,foot_imu_link,0.234799265862,0.158678978682,0.509030759335,-0.812759518623,0.0,0.0,0.0,0.0,0.0,0.0,0.0,0.0,0.0,0.0116281509399,-0.00619054445997,-0.00191983650438,0.01,0.0,0.0,0.0,0.01,0.0,0.0,0.0,0.01,-4.72979021072,2.0872733593,-8.00867462158,0.01,0.0,0.0,0.0,0.01,0.0,0.0,0.0,0.01
1585291170261307307,46146,1585291170260619087,foot_imu_link,0.234607025981,0.159006506205,0.508999705315,-0.812770426273,0.0,0.0,0.0,0.0,0.0,0.0,0.0,0.0,0.0,0.0228270068765,-0.0116713205352,-0.00536627834663,0.01,0.0,0.0,0.0,0.01,0.0,0.0,0.0,0.01,-4.75900363922,2.07774019241,-8.02762126923,0.01,0.0,0.0,0.0,0.01,0.0,0.0,0.0,0.01
1585291170276678753,46147,1585291170275836780,foot_imu_link,0.234487071633,0.15920342505,0.508967280388,-0.812786877155,0.0,0.0,0.0,0.0,0.0,0.0,0.0,0.0,0.0,0.0291517134756,-0.0133722638711,-0.00505395978689,0.01,0.0,0.0,0.0,0.01,0.0,0.0,0.0,0.01,-4.73701047897,2.08780097961,-8.01434612274,0.01,0.0,0.0,0.0,0.01,0.0,0.0,0.0,0.01
1585291170293358378,46148,1585291170292713006,foot_imu_link,0.234336048365,0.159446537495,0.508948326111,-0.812794625759,0.0,0.0,0.0,0.0,0.0,0.0,0.0,0.0,0.0,0.0372837781906,-0.0181918181479,-0.0109708737582,0.01,0.0,0.0,0.0,0.01,0.0,0.0,0.0,0.01,-4.70004463196,2.10209846497,-7.9974732399,0.01,0.0,0.0,0.0,0.01,0.0,0.0,0.0,0.01
1585291170309699315,46149,1585291170308754466,foot_imu_link,0.234152600169,0.159728467464,0.508946895599,-0.812792956829,0.0,0.0,0.0,0.0,0.0,0.0,0.0,0.0,0.0,0.0208976306021,-0.00580936018378,-0.00821206718683,0.01,0.0,0.0,0.0,0.01,0.0,0.0,0.0,0.01,-4.84155273438,2.04406404495,-8.10639381409,0.01,0.0,0.0,0.0,0.01,0.0,0.0,0.0,0.01
1585291170324135521,46150,1585291170323540045,foot_imu_link,0.234085097909,0.159800097346,0.508953034878,-0.81279450655,0.0,0.0,0.0,0.0,0.0,0.0,0.0,0.0,0.0,0.0092353541404,-0.00127634312958,-0.00382702425122,0.01,0.0,0.0,0.0,0.01,0.0,0.0,0.0,0.01,-4.74449443817,2.06856560707,-8.01047325134,0.01,0.0,0.0,0.0,0.01,0.0,0.0,0.0,0.01
1585291170339461441,46151,1585291170338888429,foot_imu_link,0.234035119414,0.159853100777,0.508962154388,-0.812792778015,0.0,0.0,0.0,0.0,0.0,0.0,0.0,0.0,0.0,0.00919983536005,-0.0025599792134,-0.00521913357079,0.01,0.0,0.0,0.0,0.01,0.0,0.0,0.0,0.01,-4.74205207825,2.0750169754,-8.01241111755,0.01,0.0,0.0,0.0,0.01,0.0,0.0,0.0,0.01
1585291170360985348,46152,1585291170360385702,foot_imu_link,0.233975917101,0.159937143326,0.508967518806,-0.812789857388,0.0,0.0,0.0,0.0,0.0,0.0,0.0,0.0,0.0,0.00911722518504,-0.0047673759982,-0.0032947040163,0.01,0.0,0.0,0.0,0.01,0.0,0.0,0.0,0.01,-4.77623271942,2.06845903397,-8.01452827454,0.01,0.0,0.0,0.0,0.01,0.0,0.0,0.0,0.01
1585291170376327624,46153,1585291170375694779,foot_imu_link,0.233928486705,0.160019993782,0.508956134319,-0.812794387341,0.0,0.0,0.0,0.0,0.0,0.0,0.0,0.0,0.0,0.0113128200173,-0.00594052253291,-0.00366684235632,0.01,0.0,0.0,0.0,0.01,0.0,0.0,0.0,0.01,-4.74638557434,2.07008886337,-8.03836727142,0.01,0.0,0.0,0.0,0.01,0.0,0.0,0.0,0.01
1585291170392956199,46154,1585291170392369234,foot_imu_link,0.233885645866,0.160111024976,0.508938491344,-0.812799870968,0.0,0.0,0.0,0.0,0.0,0.0,0.0,0.0,0.0,0.0110499151051,-0.00709157017991,-0.00186105864123,0.01,0.0,0.0,0.0,0.01,0.0,0.0,0.0,0.01,-4.76524353027,2.09741091728,-8.04671764374,0.01,0.0,0.0,0.0,0.01,0.0,0.0,0.0,0.01
1585291170424329696,46155,1585291170423574659,foot_imu_link,0.233740210533,0.160364374518,0.508928537369,-0.812798023224,0.0,0.0,0.0,0.0,0.0,0.0,0.0,0.0,0.0,0.0163934286684,-0.00820792838931,-0.00514544732869,0.01,0.0,0.0,0.0,0.01,0.0,0.0,0.0,0.01,-4.75087451935,2.06467986107,-7.98378753662,0.01,0.0,0.0,0.0,0.01,0.0,0.0,0.0,0.01
1585291170439945229,46156,1585291170438785359,foot_imu_link,0.233655378222,0.160522773862,0.50892573595,-0.812792897224,0.0,0.0,0.0,0.0,0.0,0.0,0.0,0.0,0.0,0.0211521349847,-0.0133362812921,-0.00746035203338,0.01,0.0,0.0,0.0,0.01,0.0,0.0,0.0,0.01,-4.73774337769,2.07620859146,-8.03110694885,0.01,0.0,0.0,0.0,0.01,0.0,0.0,0.0,0.01
1585291170476154246,46157,1585291170475441009,foot_imu_link,0.233391240239,0.16100089252,0.508918642998,-0.812778651714,0.0,0.0,0.0,0.0,0.0,0.0,0.0,0.0,0.0,0.0279443748295,-0.015648342669,-0.00855771265924,0.01,0.0,0.0,0.0,0.01,0.0,0.0,0.0,0.01,-4.83344745636,2.05664229393,-8.07018852234,0.01,0.0,0.0,0.0,0.01,0.0,0.0,0.0,0.01
1585291170491499700,46158,1585291170490839015,foot_imu_link,0.233275651932,0.161186665297,0.508926033974,-0.812770426273,0.0,0.0,0.0,0.0,0.0,0.0,0.0,0.0,0.0,0.0237885713577,-0.0120087899268,-0.00901678949594,0.01,0.0,0.0,0.0,0.01,0.0,0.0,0.0,0.01,-4.73151254654,2.03385734558,-8.02100753784,0.01,0.0,0.0,0.0,0.01,0.0,0.0,0.0,0.01
1585291170507991712,46159,1585291170507391348,foot_imu_link,0.233180448413,0.161363407969,0.508939445019,-0.81275421381,0.0,0.0,0.0,0.0,0.0,0.0,0.0,0.0,0.0,0.0227068923414,-0.010648554191,-0.00967453140765,0.01,0.0,0.0,0.0,0.01,0.0,0.0,0.0,0.01,-4.89468383789,2.05928015709,-7.97941970825,0.01,0.0,0.0,0.0,0.01,0.0,0.0,0.0,0.01
1585291170524753501,46160,1585291170523184567,foot_imu_link,0.233060598373,0.161566033959,0.508955478668,-0.812738358974,0.0,0.0,0.0,0.0,0.0,0.0,0.0,0.0,0.0,0.0140639478341,-0.0105266030878,-0.00453317398205,0.01,0.0,0.0,0.0,0.01,0.0,0.0,0.0,0.01,-4.89188194275,2.08600354195,-8.0613899231,0.01,0.0,0.0,0.0,0.01,0.0,0.0,0.0,0.01
1585291170539328576,46161,1585291170538426152,foot_imu_link,0.233027949929,0.161616966128,0.508957087994,-0.812736451626,0.0,0.0,0.0,0.0,0.0,0.0,0.0,0.0,0.0,0.00357425492257,-0.00207903934643,-0.00217835349031,0.01,0.0,0.0,0.0,0.01,0.0,0.0,0.0,0.01,-4.79909658432,2.01972818375,-8.07764053345,0.01,0.0,0.0,0.0,0.01,0.0,0.0,0.0,0.01
1585291170554312070,46162,1585291170553647117,foot_imu_link,0.233015477657,0.161625057459,0.508958160877,-0.812737822533,0.0,0.0,0.0,0.0,0.0,0.0,0.0,0.0,0.0,0.00129640940577,0.000644635001663,-0.000763863325119,0.01,0.0,0.0,0.0,0.01,0.0,0.0,0.0,0.01,-4.78820323944,2.06550073624,-8.04065227509,0.01,0.0,0.0,0.0,0.01,0.0,0.0,0.0,0.01
1585291170576043717,46163,1585291170575466205,foot_imu_link,0.232997924089,0.161647349596,0.508974671364,-0.812728106976,0.0,0.0,0.0,0.0,0.0,0.0,0.0,0.0,0.0,0.00304538477212,-0.000340345373843,-0.00320619903505,0.01,0.0,0.0,0.0,0.01,0.0,0.0,0.0,0.01,-4.79780960083,2.0406665802,-8.03337574005,0.01,0.0,0.0,0.0,0.01,0.0,0.0,0.0,0.01
1585291170591014442,46164,1585291170590436943,foot_imu_link,0.232979506254,0.16167576611,0.508984088898,-0.812721729279,0.0,0.0,0.0,0.0,0.0,0.0,0.0,0.0,0.0,0.00478336960077,-0.00222105020657,-0.00301473308355,0.01,0.0,0.0,0.0,0.01,0.0,0.0,0.0,0.01,-4.76550912857,2.06370639801,-8.01956939697,0.01,0.0,0.0,0.0,0.01,0.0,0.0,0.0,0.01
1585291170608044593,46165,1585291170607312049,foot_imu_link,0.232975244522,0.161694645882,0.508990764618,-0.812715113163,0.0,0.0,0.0,0.0,0.0,0.0,0.0,0.0,0.0,-0.00156838819385,-0.00113017228432,-0.00178389484063,0.01,0.0,0.0,0.0,0.01,0.0,0.0,0.0,0.01,-4.83244466782,2.04320955276,-8.08332538605,0.01,0.0,0.0,0.0,0.01,0.0,0.0,0.0,0.01
1585291170638566455,46166,1585291170638006406,foot_imu_link,0.233112424612,0.161496624351,0.509060323238,-0.812671542168,0.0,0.0,0.0,0.0,0.0,0.0,0.0,0.0,0.0,-0.0170075967908,0.00471163773909,0.00191096635535,0.01,0.0,0.0,0.0,0.01,0.0,0.0,0.0,0.01,-4.77390623093,1.98595750332,-8.0393409729,0.01,0.0,0.0,0.0,0.01,0.0,0.0,0.0,0.01
1585291170654500783,46167,1585291170653468162,foot_imu_link,0.233193978667,0.161391586065,0.509075760841,-0.812659323215,0.0,0.0,0.0,0.0,0.0,0.0,0.0,0.0,0.0,-0.0153929777443,0.00526507617906,0.00354829244316,0.01,0.0,0.0,0.0,0.01,0.0,0.0,0.0,0.01,-4.74103832245,2.02539992332,-8.00902271271,0.01,0.0,0.0,0.0,0.01,0.0,0.0,0.0,0.01
1585291170690996148,46168,1585291170690343505,foot_imu_link,0.233319103718,0.161217063665,0.50905251503,-0.812672674656,0.0,0.0,0.0,0.0,0.0,0.0,0.0,0.0,0.0,-0.0111905373633,0.00594614446163,0.00497561413795,0.01,0.0,0.0,0.0,0.01,0.0,0.0,0.0,0.01,-4.79714393616,2.05701851845,-8.03974914551,0.01,0.0,0.0,0.0,0.01,0.0,0.0,0.0,0.01
1585291170705953789,46169,1585291170705400849,foot_imu_link,0.233360022306,0.161136254668,0.509055554867,-0.812675058842,0.0,0.0,0.0,0.0,0.0,0.0,0.0,0.0,0.0,-0.0104587413371,0.00602363329381,0.00209088996053,0.01,0.0,0.0,0.0,0.01,0.0,0.0,0.0,0.01,-4.76170539856,2.09785437584,-8.01595878601,0.01,0.0,0.0,0.0,0.01,0.0,0.0,0.0,0.01
1585291170722892873,46170,1585291170722348803,foot_imu_link,0.233388796449,0.161072060466,0.509060800076,-0.81267619133,0.0,0.0,0.0,0.0,0.0,0.0,0.0,0.0,0.0,-0.00641840323806,0.00440235389397,0.00128894206136,0.01,0.0,0.0,0.0,0.01,0.0,0.0,0.0,0.01,-4.78026390076,2.04288768768,-8.00823688507,0.01,0.0,0.0,0.0,0.01,0.0,0.0,0.0,0.01
1585291170738657309,46171,1585291170738058144,foot_imu_link,0.233415544033,0.16100217402,0.509077012539,-0.812672197819,0.0,0.0,0.0,0.0,0.0,0.0,0.0,0.0,0.0,-0.00673199910671,0.00342107913457,0.00240364437923,0.01,0.0,0.0,0.0,0.01,0.0,0.0,0.0,0.01,-4.7579832077,2.0384323597,-8.05577468872,0.01,0.0,0.0,0.0,0.01,0.0,0.0,0.0,0.01
1585291170753732085,46172,1585291170753166134,foot_imu_link,0.233430847526,0.160940214992,0.509082138538,-0.812676906586,0.0,0.0,0.0,0.0,0.0,0.0,0.0,0.0,0.0,-0.00588541850448,0.00319849397056,0.00106747355312,0.01,0.0,0.0,0.0,0.01,0.0,0.0,0.0,0.01,-4.76163578033,2.0623049736,-8.03322601318,0.01,0.0,0.0,0.0,0.01,0.0,0.0,0.0,0.01
1585291170769113999,46173,1585291170768453288,foot_imu_link,0.233446240425,0.160910636187,0.509058654308,-0.812693059444,0.0,0.0,0.0,0.0,0.0,0.0,0.0,0.0,0.0,-0.00305401720107,0.003498920938,0.00423926860094,0.01,0.0,0.0,0.0,0.01,0.0,0.0,0.0,0.01,-4.80237388611,2.06891107559,-8.02997016907,0.01,0.0,0.0,0.0,0.01,0.0,0.0,0.0,0.01
1585291170790699111,46174,1585291170790044184,foot_imu_link,0.233468994498,0.160870626569,0.509030282497,-0.812712192535,0.0,0.0,0.0,0.0,0.0,0.0,0.0,0.0,0.0,-0.00279615726322,0.000779543130193,0.00429123267531,0.01,0.0,0.0,0.0,0.01,0.0,0.0,0.0,0.01,-4.76193523407,2.08401417732,-7.98834466934,0.01,0.0,0.0,0.0,0.01,0.0,0.0,0.0,0.01
1585291170806149465,46175,1585291170805484956,foot_imu_link,0.233475878835,0.160849794745,0.509008646011,-0.812727928162,0.0,0.0,0.0,0.0,0.0,0.0,0.0,0.0,0.0,-0.00108201708645,0.0023226023186,0.00250305049121,0.01,0.0,0.0,0.0,0.01,0.0,0.0,0.0,0.01,-4.76494407654,2.06167984009,-8.03519821167,0.01,0.0,0.0,0.0,0.01,0.0,0.0,0.0,0.01
1585291170822669136,46176,1585291170822088162,foot_imu_link,0.233480527997,0.160832062364,0.50898963213,-0.812741935253,0.0,0.0,0.0,0.0,0.0,0.0,0.0,0.0,0.0,-0.00237726885825,0.0023674252443,0.00386519683525,0.01,0.0,0.0,0.0,0.01,0.0,0.0,0.0,0.01,-4.78852033615,2.06539058685,-8.05364608765,0.01,0.0,0.0,0.0,0.01,0.0,0.0,0.0,0.01
1585291170853723675,46177,1585291170853145043,foot_imu_link,0.233520939946,0.160702466965,0.508977472782,-0.812763571739,0.0,0.0,0.0,0.0,0.0,0.0,0.0,0.0,0.0,-0.00408050790429,0.00410275533795,0.00208449317142,0.01,0.0,0.0,0.0,0.01,0.0,0.0,0.0,0.01,-4.76567411423,2.07860684395,-8.01412391663,0.01,0.0,0.0,0.0,0.01,0.0,0.0,0.0,0.01
1585291170868519357,46178,1585291170868068854,foot_imu_link,0.233523875475,0.160673141479,0.508974969387,-0.81277012825,0.0,0.0,0.0,0.0,0.0,0.0,0.0,0.0,0.0,-0.000266090966761,0.00089006847702,0.0020606322214,0.01,0.0,0.0,0.0,0.01,0.0,0.0,0.0,0.01,-4.75705623627,2.03569149971,-8.05079650879,0.01,0.0,0.0,0.0,0.01,0.0,0.0,0.0,0.01
1585291170905661561,46179,1585291170905125435,foot_imu_link,0.233536183834,0.160630345345,0.50892418623,-0.812806844711,0.0,0.0,0.0,0.0,0.0,0.0,0.0,0.0,0.0,-0.00156674161553,-0.000252903206274,0.00573688279837,0.01,0.0,0.0,0.0,0.01,0.0,0.0,0.0,0.01,-4.78525876999,2.04807376862,-8.03785991669,0.01,0.0,0.0,0.0,0.01,0.0,0.0,0.0,0.01
1585291170921059825,46180,1585291170920418898,foot_imu_link,0.233556032181,0.160612538457,0.508883357048,-0.812830209732,0.0,0.0,0.0,0.0,0.0,0.0,0.0,0.0,0.0,-0.00190781895071,-0.000608246657066,0.00727829243988,0.01,0.0,0.0,0.0,0.01,0.0,0.0,0.0,0.01,-4.75608158112,2.06809639931,-8.03704071045,0.01,0.0,0.0,0.0,0.01,0.0,0.0,0.0,0.01
1585291170937415811,46181,1585291170936873245,foot_imu_link,0.233570307493,0.160602405667,0.508847117424,-0.812850832939,0.0,0.0,0.0,0.0,0.0,0.0,0.0,0.0,0.0,-0.000744576565921,-0.00112281437032,0.00531094055623,0.01,0.0,0.0,0.0,0.01,0.0,0.0,0.0,0.01,-4.74703407288,2.07140207291,-7.98675870895,0.01,0.0,0.0,0.0,0.01,0.0,0.0,0.0,0.01
1585291170954008359,46182,1585291170953098316,foot_imu_link,0.233597025275,0.16059371829,0.508814573288,-0.812865197659,0.0,0.0,0.0,0.0,0.0,0.0,0.0,0.0,0.0,-0.00234589725733,0.000244830764132,0.0014577312395,0.01,0.0,0.0,0.0,0.01,0.0,0.0,0.0,0.01,-4.76245594025,2.0900452137,-7.98885917664,0.01,0.0,0.0,0.0,0.01,0.0,0.0,0.0,0.01
1585291170968393248,46183,1585291170967915384,foot_imu_link,0.233609616756,0.160596132278,0.508800685406,-0.812869846821,0.0,0.0,0.0,0.0,0.0,0.0,0.0,0.0,0.0,8.94702970982e-05,-0.00136066460982,0.000169864390045,0.01,0.0,0.0,0.0,0.01,0.0,0.0,0.0,0.01,-4.76286411285,2.06646227837,-8.01465034485,0.01,0.0,0.0,0.0,0.01,0.0,0.0,0.0,0.01
1585291170984768287,46184,1585291170983402627,foot_imu_link,0.233624443412,0.160600319505,0.508790612221,-0.812871038914,0.0,0.0,0.0,0.0,0.0,0.0,0.0,0.0,0.0,-0.00159452110529,-0.000753897125833,-0.000767763704062,0.01,0.0,0.0,0.0,0.01,0.0,0.0,0.0,0.01,-4.78536844254,2.06516003609,-7.99950408936,0.01,0.0,0.0,0.0,0.01,0.0,0.0,0.0,0.01
1585291171006567145,46185,1585291171004964311,foot_imu_link,0.233640506864,0.160595938563,0.50878149271,-0.812872886658,0.0,0.0,0.0,0.0,0.0,0.0,0.0,0.0,0.0,-0.00170622114092,-0.00102453189902,0.000944913364947,0.01,0.0,0.0,0.0,0.01,0.0,0.0,0.0,0.01,-4.76074171066,2.0519618988,-7.98629617691,0.01,0.0,0.0,0.0,0.01,0.0,0.0,0.0,0.01
1585291171022086793,46186,1585291171020015077,foot_imu_link,0.233660325408,0.160579055548,0.508762657642,-0.812882483006,0.0,0.0,0.0,0.0,0.0,0.0,0.0,0.0,0.0,-0.0049169510603,0.000127493593027,0.00417650956661,0.01,0.0,0.0,0.0,0.01,0.0,0.0,0.0,0.01,-4.78304243088,2.06649827957,-7.99369382858,0.01,0.0,0.0,0.0,0.01,0.0,0.0,0.0,0.01
1585291171039218593,46187,1585291171035342245,foot_imu_link,0.23369383812,0.160539776087,0.508740723133,-0.812894284725,0.0,0.0,0.0,0.0,0.0,0.0,0.0,0.0,0.0,-0.00699998252094,0.00271770381369,0.00837602373213,0.01,0.0,0.0,0.0,0.01,0.0,0.0,0.0,0.01,-4.77732849121,2.06190776825,-8.02364826202,0.01,0.0,0.0,0.0,0.01,0.0,0.0,0.0,0.01
1585291171045176871,46188,1585291171044054921,foot_imu_link,0.233721166849,0.160506591201,0.508722305298,-0.812904536724,0.0,0.0,0.0,0.0,0.0,0.0,0.0,0.0,0.0,-0.00668606627733,0.00251895305701,0.00691235018894,0.01,0.0,0.0,0.0,0.01,0.0,0.0,0.0,0.01,-4.77285051346,2.07528114319,-8.00199890137,0.01,0.0,0.0,0.0,0.01,0.0,0.0,0.0,0.01
1585291171068260687,46189,1585291171067746816,foot_imu_link,0.233782500029,0.160428419709,0.508652091026,-0.812946200371,0.0,0.0,0.0,0.0,0.0,0.0,0.0,0.0,0.0,-0.00313176307827,0.000817603082396,0.00798732787371,0.01,0.0,0.0,0.0,0.01,0.0,0.0,0.0,0.01,-4.75439500809,2.09021425247,-8.0050907135,0.01,0.0,0.0,0.0,0.01,0.0,0.0,0.0,0.01
1585291171083841838,46190,1585291171083180767,foot_imu_link,0.233795821667,0.160405218601,0.508620262146,-0.812966883183,0.0,0.0,0.0,0.0,0.0,0.0,0.0,0.0,0.0,-0.00316457729787,-0.000162709475262,0.00339088588953,0.01,0.0,0.0,0.0,0.01,0.0,0.0,0.0,0.01,-4.75243139267,2.06358242035,-8.0218667984,0.01,0.0,0.0,0.0,0.01,0.0,0.0,0.0,0.01
1585291171120772591,46191,1585291171119771080,foot_imu_link,0.233780384064,0.160392478108,0.508602261543,-0.812985122204,0.0,0.0,0.0,0.0,0.0,0.0,0.0,0.0,0.0,-0.000468032434583,-0.000629879999906,-0.0012976275757,0.01,0.0,0.0,0.0,0.01,0.0,0.0,0.0,0.01,-4.75938987732,2.06225848198,-8.0131072998,0.01,0.0,0.0,0.0,0.01,0.0,0.0,0.0,0.01
1585291171136477551,46192,1585291171135170136,foot_imu_link,0.23377636075,0.160397469997,0.50860786438,-0.812981784344,0.0,0.0,0.0,0.0,0.0,0.0,0.0,0.0,0.0,-0.000329546630383,-0.000278195249848,7.92788341641e-05,0.01,0.0,0.0,0.0,0.01,0.0,0.0,0.0,0.01,-4.76214981079,2.06650590897,-8.03316688538,0.01,0.0,0.0,0.0,0.01,0.0,0.0,0.0,0.01
1585291171152917572,46193,1585291171151777238,foot_imu_link,0.233777165413,0.160397991538,0.508605480194,-0.812982976437,0.0,0.0,0.0,0.0,0.0,0.0,0.0,0.0,0.0,0.000122576020658,-0.00190535676666,-0.000348967500031,0.01,0.0,0.0,0.0,0.01,0.0,0.0,0.0,0.01,-4.77341890335,2.10533428192,-8.02547264099,0.01,0.0,0.0,0.0,0.01,0.0,0.0,0.0,0.01
1585291171168185626,46194,1585291171167519872,foot_imu_link,0.233785569668,0.160395786166,0.508592963219,-0.812988758087,0.0,0.0,0.0,0.0,0.0,0.0,0.0,0.0,0.0,0.0010933354497,-0.00265818322077,0.00183374062181,0.01,0.0,0.0,0.0,0.01,0.0,0.0,0.0,0.01,-4.74145412445,2.08956170082,-8.02067661285,0.01,0.0,0.0,0.0,0.01,0.0,0.0,0.0,0.01
1585291171183416471,46195,1585291171182768562,foot_imu_link,0.23378674686,0.16041263938,0.508571207523,-0.812998712063,0.0,0.0,0.0,0.0,0.0,0.0,0.0,0.0,0.0,0.00201517902315,-0.00287190196104,0.0011089630425,0.01,0.0,0.0,0.0,0.01,0.0,0.0,0.0,0.01,-4.77066850662,2.09516882896,-8.05454444885,0.01,0.0,0.0,0.0,0.01,0.0,0.0,0.0,0.01
1585291171198658369,46196,1585291171198104450,foot_imu_link,0.233776047826,0.160449638963,0.508562982082,-0.812999665737,0.0,0.0,0.0,0.0,0.0,0.0,0.0,0.0,0.0,0.00387128442526,-0.00472538452595,-0.00133644021116,0.01,0.0,0.0,0.0,0.01,0.0,0.0,0.0,0.01,-4.74418783188,2.07060694695,-8.0302324295,0.01,0.0,0.0,0.0,0.01,0.0,0.0,0.0,0.01
1585291171220543538,46197,1585291171219618560,foot_imu_link,0.23375338316,0.160527214408,0.508538544178,-0.813006162643,0.0,0.0,0.0,0.0,0.0,0.0,0.0,0.0,0.0,0.00667229294777,-0.00374646810815,0.000291448552161,0.01,0.0,0.0,0.0,0.01,0.0,0.0,0.0,0.01,-4.76112174988,2.07995724678,-8.01009368896,0.01,0.0,0.0,0.0,0.01,0.0,0.0,0.0,0.01
1585291171236040330,46198,1585291171235134208,foot_imu_link,0.233735695481,0.160606205463,0.508525848389,-0.813003599644,0.0,0.0,0.0,0.0,0.0,0.0,0.0,0.0,0.0,0.0109561122954,-0.0068806479685,-0.00288825575262,0.01,0.0,0.0,0.0,0.01,0.0,0.0,0.0,0.01,-4.75856304169,2.08327484131,-7.99416923523,0.01,0.0,0.0,0.0,0.01,0.0,0.0,0.0,0.01
1585291171250947560,46199,1585291171250052279,foot_imu_link,0.233683079481,0.160704761744,0.508527219296,-0.812998354435,0.0,0.0,0.0,0.0,0.0,0.0,0.0,0.0,0.0,0.0119849853218,-0.00749763287604,-0.00339550245553,0.01,0.0,0.0,0.0,0.01,0.0,0.0,0.0,0.01,-4.77318191528,2.08375239372,-8.02726173401,0.01,0.0,0.0,0.0,0.01,0.0,0.0,0.0,0.01
1585291171268507909,46200,1585291171266633603,foot_imu_link,0.233631759882,0.160805389285,0.50851559639,-0.813000440598,0.0,0.0,0.0,0.0,0.0,0.0,0.0,0.0,0.0,0.0127095915377,-0.00847936142236,-0.00423459801823,0.01,0.0,0.0,0.0,0.01,0.0,0.0,0.0,0.01,-4.77082443237,2.07258939743,-8.01804733276,0.01,0.0,0.0,0.0,0.01,0.0,0.0,0.0,0.01
1585291171283674747,46201,1585291171282906853,foot_imu_link,0.23351803422,0.161003321409,0.508502066135,-0.813002467155,0.0,0.0,0.0,0.0,0.0,0.0,0.0,0.0,0.0,0.0319289006293,-0.0151179917157,-0.00705234380439,0.01,0.0,0.0,0.0,0.01,0.0,0.0,0.0,0.01,-4.86028575897,2.02292299271,-7.90174102783,0.01,0.0,0.0,0.0,0.01,0.0,0.0,0.0,0.01
1585291171298530888,46202,1585291171297818660,foot_imu_link,0.233468413353,0.161080509424,0.508493006229,-0.813007056713,0.0,0.0,0.0,0.0,0.0,0.0,0.0,0.0,0.0,0.00922550447285,-0.00419533764943,-0.00229283468798,0.01,0.0,0.0,0.0,0.01,0.0,0.0,0.0,0.01,-4.7801117897,2.06918859482,-8.06268215179,0.01,0.0,0.0,0.0,0.01,0.0,0.0,0.0,0.01
1585291171337099325,46203,1585291171334902383,foot_imu_link,0.23343360424,0.161145061255,0.508499622345,-0.813000142574,0.0,0.0,0.0,0.0,0.0,0.0,0.0,0.0,0.0,0.00190771836787,-0.00103140308056,-0.000740139745176,0.01,0.0,0.0,0.0,0.01,0.0,0.0,0.0,0.01,-4.78374147415,2.057700634,-8.04324054718,0.01,0.0,0.0,0.0,0.01,0.0,0.0,0.0,0.01
