%time,field.header.seq,field.header.stamp,field.header.frame_id,field.orientation.x,field.orientation.y,field.orientation.z,field.orientation.w,field.orientation_covariance0,field.orientation_covariance1,field.orientation_covariance2,field.orientation_covariance3,field.orientation_covariance4,field.orientation_covariance5,field.orientation_covariance6,field.orientation_covariance7,field.orientation_covariance8,field.angular_velocity.x,field.angular_velocity.y,field.angular_velocity.z,field.angular_velocity_covariance0,field.angular_velocity_covariance1,field.angular_velocity_covariance2,field.angular_velocity_covariance3,field.angular_velocity_covariance4,field.angular_velocity_covariance5,field.angular_velocity_covariance6,field.angular_velocity_covariance7,field.angular_velocity_covariance8,field.linear_acceleration.x,field.linear_acceleration.y,field.linear_acceleration.z,field.linear_acceleration_covariance0,field.linear_acceleration_covariance1,field.linear_acceleration_covariance2,field.linear_acceleration_covariance3,field.linear_acceleration_covariance4,field.linear_acceleration_covariance5,field.linear_acceleration_covariance6,field.linear_acceleration_covariance7,field.linear_acceleration_covariance8
1585296390785802402,8429,1585296390785280673,foot_imu_link,-0.0933585762978,-0.209161147475,-0.471061050892,0.851843476295,0.0,0.0,0.0,0.0,0.0,0.0,0.0,0.0,0.0,-0.00244011636823,0.00151179975364,0.00311576202512,0.01,0.0,0.0,0.0,0.01,0.0,0.0,0.0,0.01,-4.31222724915,-0.329839110374,-8.63906764984,0.01,0.0,0.0,0.0,0.01,0.0,0.0,0.0,0.01
1585296390787305989,8430,1585296390786810659,foot_imu_link,-0.0933689698577,-0.20915953815,-0.471055328846,0.851845860481,0.0,0.0,0.0,0.0,0.0,0.0,0.0,0.0,0.0,-0.00295469909906,-0.00150231667794,0.00355571787804,0.01,0.0,0.0,0.0,0.01,0.0,0.0,0.0,0.01,-4.2579369545,-0.36949250102,-8.62223434448,0.01,0.0,0.0,0.0,0.01,0.0,0.0,0.0,0.01
1585296390794620910,8431,1585296390794133413,foot_imu_link,-0.0933751314878,-0.209160357714,-0.471048057079,0.851849079132,0.0,0.0,0.0,0.0,0.0,0.0,0.0,0.0,0.0,-0.0015370612964,-0.00163727393374,0.0035428176634,0.01,0.0,0.0,0.0,0.01,0.0,0.0,0.0,0.01,-4.28381490707,-0.384387910366,-8.61745834351,0.01,0.0,0.0,0.0,0.01,0.0,0.0,0.0,0.01
1585296390796880058,8432,1585296390796379341,foot_imu_link,-0.0933809280396,-0.209153965116,-0.471043497324,0.851852476597,0.0,0.0,0.0,0.0,0.0,0.0,0.0,0.0,0.0,-0.00285191368312,0.00133621250279,0.00276183243841,0.01,0.0,0.0,0.0,0.01,0.0,0.0,0.0,0.01,-4.27787590027,-0.373696357012,-8.6251707077,0.01,0.0,0.0,0.0,0.01,0.0,0.0,0.0,0.01
1585296390806516653,8433,1585296390804678719,foot_imu_link,-0.0933862403035,-0.209149926901,-0.471038907766,0.851855397224,0.0,0.0,0.0,0.0,0.0,0.0,0.0,0.0,0.0,-0.00181955564767,0.000324321852531,0.0032296278514,0.01,0.0,0.0,0.0,0.01,0.0,0.0,0.0,0.01,-4.26622772217,-0.357494115829,-8.59587574005,0.01,0.0,0.0,0.0,0.01,0.0,0.0,0.0,0.01
1585296390807501477,8434,1585296390807305172,foot_imu_link,-0.093392573297,-0.209142774343,-0.471038341522,0.851856827736,0.0,0.0,0.0,0.0,0.0,0.0,0.0,0.0,0.0,-0.00300909020007,0.00145299045835,0.00169007852674,0.01,0.0,0.0,0.0,0.01,0.0,0.0,0.0,0.01,-4.29236268997,-0.371358215809,-8.62944412231,0.01,0.0,0.0,0.0,0.01,0.0,0.0,0.0,0.01
1585296390816070560,8435,1585296390815851819,foot_imu_link,-0.0933973416686,-0.209132224321,-0.471037685871,0.851859271526,0.0,0.0,0.0,0.0,0.0,0.0,0.0,0.0,0.0,-0.00212041661143,0.00236670183949,0.000723126810044,0.01,0.0,0.0,0.0,0.01,0.0,0.0,0.0,0.01,-4.28197717667,-0.367954194546,-8.64229774475,0.01,0.0,0.0,0.0,0.01,0.0,0.0,0.0,0.01
1585296390853160281,8436,1585296390852999236,foot_imu_link,-0.0934369340539,-0.209068253636,-0.471018761396,0.851881086826,0.0,0.0,0.0,0.0,0.0,0.0,0.0,0.0,0.0,-0.00383240450174,0.00269420864061,0.00221869908273,0.01,0.0,0.0,0.0,0.01,0.0,0.0,0.0,0.01,-4.28544950485,-0.367711812258,-8.56736564636,0.01,0.0,0.0,0.0,0.01,0.0,0.0,0.0,0.01
1585296390868747347,8437,1585296390868337264,foot_imu_link,-0.0934533923864,-0.209041267633,-0.471011191607,0.851890087128,0.0,0.0,0.0,0.0,0.0,0.0,0.0,0.0,0.0,-0.00356587953866,0.000706188788172,0.00174420466647,0.01,0.0,0.0,0.0,0.01,0.0,0.0,0.0,0.01,-4.29825210571,-0.349064707756,-8.62461853027,0.01,0.0,0.0,0.0,0.01,0.0,0.0,0.0,0.01
1585296390885885571,8438,1585296390885310181,foot_imu_link,-0.0934634506702,-0.209028318524,-0.4710034132,0.851896464825,0.0,0.0,0.0,0.0,0.0,0.0,0.0,0.0,0.0,-0.00118206255138,0.000375602568965,0.00168525613844,0.01,0.0,0.0,0.0,0.01,0.0,0.0,0.0,0.01,-4.29121494293,-0.36446210742,-8.6485710144,0.01,0.0,0.0,0.0,0.01,0.0,0.0,0.0,0.01
1585296390901703949,8439,1585296390901086656,foot_imu_link,-0.0934727415442,-0.209023311734,-0.470985889435,0.8519064188,0.0,0.0,0.0,0.0,0.0,0.0,0.0,0.0,0.0,9.76901501417e-05,0.000949611479882,0.00160142267123,0.01,0.0,0.0,0.0,0.01,0.0,0.0,0.0,0.01,-4.28120613098,-0.343794375658,-8.62581253052,0.01,0.0,0.0,0.0,0.01,0.0,0.0,0.0,0.01
1585296390917576804,8440,1585296390916429361,foot_imu_link,-0.0934714004397,-0.209011107683,-0.470978915691,0.851913392544,0.0,0.0,0.0,0.0,0.0,0.0,0.0,0.0,0.0,-0.000886302441359,0.00237947702408,0.00103425420821,0.01,0.0,0.0,0.0,0.01,0.0,0.0,0.0,0.01,-4.26796913147,-0.36263641715,-8.62278366089,0.01,0.0,0.0,0.0,0.01,0.0,0.0,0.0,0.01
1585296390931999673,8441,1585296390931241203,foot_imu_link,-0.0934712141752,-0.209001943469,-0.470966517925,0.851922512054,0.0,0.0,0.0,0.0,0.0,0.0,0.0,0.0,0.0,0.000560971908271,0.000846566108521,0.00177241349593,0.01,0.0,0.0,0.0,0.01,0.0,0.0,0.0,0.01,-4.28418588638,-0.34078630805,-8.62254810333,0.01,0.0,0.0,0.0,0.01,0.0,0.0,0.0,0.01
1585296390954390733,8442,1585296390953093513,foot_imu_link,-0.0934624746442,-0.208986148238,-0.470947951078,0.85193759203,0.0,0.0,0.0,0.0,0.0,0.0,0.0,0.0,0.0,0.00144999381155,0.00185816222802,0.00216453429312,0.01,0.0,0.0,0.0,0.01,0.0,0.0,0.0,0.01,-4.28382825851,-0.382151007652,-8.64499092102,0.01,0.0,0.0,0.0,0.01,0.0,0.0,0.0,0.01
1585296390968975780,8443,1585296390968106727,foot_imu_link,-0.0934592038393,-0.20897552371,-0.470937311649,0.851946473122,0.0,0.0,0.0,0.0,0.0,0.0,0.0,0.0,0.0,-0.000165602192283,0.0016918038018,0.00122741470113,0.01,0.0,0.0,0.0,0.01,0.0,0.0,0.0,0.01,-4.28152179718,-0.344117164612,-8.63146400452,0.01,0.0,0.0,0.0,0.01,0.0,0.0,0.0,0.01
1585296390985747687,8444,1585296390985033778,foot_imu_link,-0.0934445038438,-0.208970397711,-0.470935821533,0.851950109005,0.0,0.0,0.0,0.0,0.0,0.0,0.0,0.0,0.0,0.00268985889852,0.000618352845777,0.000457695219666,0.01,0.0,0.0,0.0,0.01,0.0,0.0,0.0,0.01,-4.26772451401,-0.38106405735,-8.60111427307,0.01,0.0,0.0,0.0,0.01,0.0,0.0,0.0,0.01
1585296391016559578,8445,1585296391015984231,foot_imu_link,-0.0933952108026,-0.209000736475,-0.470928311348,0.851952254772,0.0,0.0,0.0,0.0,0.0,0.0,0.0,0.0,0.0,0.0042145838961,-0.000672410882544,-0.000912718009204,0.01,0.0,0.0,0.0,0.01,0.0,0.0,0.0,0.01,-4.28580284119,-0.358200490475,-8.61434173584,0.01,0.0,0.0,0.0,0.01,0.0,0.0,0.0,0.01
1585296391031354941,8446,1585296391030829577,foot_imu_link,-0.0933727920055,-0.209023848176,-0.470929801464,0.851948201656,0.0,0.0,0.0,0.0,0.0,0.0,0.0,0.0,0.0,0.00321074249223,-0.00162392412312,-0.000742397736758,0.01,0.0,0.0,0.0,0.01,0.0,0.0,0.0,0.01,-4.29692411423,-0.384012550116,-8.64213371277,0.01,0.0,0.0,0.0,0.01,0.0,0.0,0.0,0.01
1585296391068405056,8447,1585296391068047565,foot_imu_link,-0.0933229625225,-0.209026858211,-0.470925301313,0.851955413818,0.0,0.0,0.0,0.0,0.0,0.0,0.0,0.0,0.0,0.00263501750305,0.00165437348187,0.001358225476,0.01,0.0,0.0,0.0,0.01,0.0,0.0,0.0,0.01,-4.26664352417,-0.371001839638,-8.61818504333,0.01,0.0,0.0,0.0,0.01,0.0,0.0,0.0,0.01
1585296391083603906,8448,1585296391083245654,foot_imu_link,-0.093311086297,-0.209023207426,-0.470923393965,0.851958632469,0.0,0.0,0.0,0.0,0.0,0.0,0.0,0.0,0.0,0.000311055220664,0.00136122957338,0.000735848210752,0.01,0.0,0.0,0.0,0.01,0.0,0.0,0.0,0.01,-4.28731393814,-0.370656549931,-8.6231174469,0.01,0.0,0.0,0.0,0.01,0.0,0.0,0.0,0.01
1585296391100244587,8449,1585296391099872319,foot_imu_link,-0.0933055579662,-0.209016337991,-0.470916837454,0.851964592934,0.0,0.0,0.0,0.0,0.0,0.0,0.0,0.0,0.0,0.000794740393758,0.00196358002722,-6.00726343691e-05,0.01,0.0,0.0,0.0,0.01,0.0,0.0,0.0,0.01,-4.29630756378,-0.333756506443,-8.62012004852,0.01,0.0,0.0,0.0,0.01,0.0,0.0,0.0,0.01
1585296391116501660,8450,1585296391115915502,foot_imu_link,-0.0933112278581,-0.209009245038,-0.470912903547,0.851967871189,0.0,0.0,0.0,0.0,0.0,0.0,0.0,0.0,0.0,0.000867179594934,-0.000164244265761,0.000266714487225,0.01,0.0,0.0,0.0,0.01,0.0,0.0,0.0,0.01,-4.26089859009,-0.262098819017,-8.63921165466,0.01,0.0,0.0,0.0,0.01,0.0,0.0,0.0,0.01
1585296391131515327,8451,1585296391131031669,foot_imu_link,-0.0933034271002,-0.209015756845,-0.470910817385,0.851968228817,0.0,0.0,0.0,0.0,0.0,0.0,0.0,0.0,0.0,-0.00164900626987,1.83401862159e-05,-0.000843246933073,0.01,0.0,0.0,0.0,0.01,0.0,0.0,0.0,0.01,-4.34235572815,-0.372567653656,-8.63350391388,0.01,0.0,0.0,0.0,0.01,0.0,0.0,0.0,0.01
1585296391146887195,8452,1585296391146208588,foot_imu_link,-0.09330701828,-0.209011629224,-0.470904052258,0.851972639561,0.0,0.0,0.0,0.0,0.0,0.0,0.0,0.0,0.0,-0.000123819336295,-3.8027705159e-05,-0.000198421534151,0.01,0.0,0.0,0.0,0.01,0.0,0.0,0.0,0.01,-4.31519126892,-0.437649428844,-8.64685821533,0.01,0.0,0.0,0.0,0.01,0.0,0.0,0.0,0.01
1585296391169658172,8453,1585296391167994901,foot_imu_link,-0.0933101773262,-0.209004744887,-0.470897436142,0.851977646351,0.0,0.0,0.0,0.0,0.0,0.0,0.0,0.0,0.0,-0.00122230034322,5.97831094638e-05,0.000316376332194,0.01,0.0,0.0,0.0,0.01,0.0,0.0,0.0,0.01,-4.31068134308,-0.390528559685,-8.64354038239,0.01,0.0,0.0,0.0,0.01,0.0,0.0,0.0,0.01
1585296391184333010,8454,1585296391183076968,foot_imu_link,-0.0933140143752,-0.208988115191,-0.470888495445,0.851986289024,0.0,0.0,0.0,0.0,0.0,0.0,0.0,0.0,0.0,-0.00103365909308,0.0016024117358,0.00179392658174,0.01,0.0,0.0,0.0,0.01,0.0,0.0,0.0,0.01,-4.25657510757,-0.358493804932,-8.62082386017,0.01,0.0,0.0,0.0,0.01,0.0,0.0,0.0,0.01
1585296391198930502,8455,1585296391198357324,foot_imu_link,-0.0933108702302,-0.208979740739,-0.470882415771,0.851991891861,0.0,0.0,0.0,0.0,0.0,0.0,0.0,0.0,0.0,6.92056491971e-05,-0.00047935245675,0.000929418951273,0.01,0.0,0.0,0.0,0.01,0.0,0.0,0.0,0.01,-4.2873506546,-0.363269269466,-8.6465215683,0.01,0.0,0.0,0.0,0.01,0.0,0.0,0.0,0.01
1585296391207385002,8456,1585296391206831926,foot_imu_link,-0.0933157280087,-0.208965361118,-0.470884293318,0.851993918419,0.0,0.0,0.0,0.0,0.0,0.0,0.0,0.0,0.0,-0.00131045747548,0.000898297934327,0.000517617445439,0.01,0.0,0.0,0.0,0.01,0.0,0.0,0.0,0.01,-4.25369930267,-0.370743095875,-8.65385818481,0.01,0.0,0.0,0.0,0.01,0.0,0.0,0.0,0.01
1585296391231344983,8457,1585296391230801092,foot_imu_link,-0.0932858362794,-0.2089689821,-0.470771849155,0.852058470249,0.0,0.0,0.0,0.0,0.0,0.0,0.0,0.0,0.0,0.000659857876599,0.00217584567145,-0.00108134653419,0.01,0.0,0.0,0.0,0.01,0.0,0.0,0.0,0.01,-4.28393030167,-0.384366363287,-8.60397720337,0.01,0.0,0.0,0.0,0.01,0.0,0.0,0.0,0.01
1585296391246595167,8458,1585296391245911380,foot_imu_link,-0.0932704880834,-0.208963036537,-0.470754355192,0.852071285248,0.0,0.0,0.0,0.0,0.0,0.0,0.0,0.0,0.0,-0.000583902932703,0.00127679947764,0.000355069059879,0.01,0.0,0.0,0.0,0.01,0.0,0.0,0.0,0.01,-4.29058694839,-0.350284814835,-8.64489269257,0.01,0.0,0.0,0.0,0.01,0.0,0.0,0.0,0.01
1585296391284540648,8459,1585296391283305288,foot_imu_link,-0.0933083668351,-0.208927065134,-0.470924109221,0.851982116699,0.0,0.0,0.0,0.0,0.0,0.0,0.0,0.0,0.0,-0.000133986584842,0.00193413114175,0.00116469571367,0.01,0.0,0.0,0.0,0.01,0.0,0.0,0.0,0.01,-4.33218193054,-0.324146032333,-8.63678646088,0.01,0.0,0.0,0.0,0.01,0.0,0.0,0.0,0.01
1585296391298863306,8460,1585296391298232744,foot_imu_link,-0.0932903066278,-0.208937451243,-0.470849424601,0.852022826672,0.0,0.0,0.0,0.0,0.0,0.0,0.0,0.0,0.0,0.000991099514067,-0.00184046314098,-5.65876252949e-05,0.01,0.0,0.0,0.0,0.01,0.0,0.0,0.0,0.01,-4.27607297897,-0.394458532333,-8.61202144623,0.01,0.0,0.0,0.0,0.01,0.0,0.0,0.0,0.01
1585296391315618296,8461,1585296391314941170,foot_imu_link,-0.0932696536183,-0.208954721689,-0.470829218626,0.852031946182,0.0,0.0,0.0,0.0,0.0,0.0,0.0,0.0,0.0,0.00150965433568,0.00118097290397,-0.00142919830978,0.01,0.0,0.0,0.0,0.01,0.0,0.0,0.0,0.01,-4.28444576263,-0.392031162977,-8.63464832306,0.01,0.0,0.0,0.0,0.01,0.0,0.0,0.0,0.01
1585296391331539948,8462,1585296391330910875,foot_imu_link,-0.0932561457157,-0.208950206637,-0.470865309238,0.852014660835,0.0,0.0,0.0,0.0,0.0,0.0,0.0,0.0,0.0,0.00109604932368,0.000746799225453,0.000328371301293,0.01,0.0,0.0,0.0,0.01,0.0,0.0,0.0,0.01,-4.28832435608,-0.368002474308,-8.65825462341,0.01,0.0,0.0,0.0,0.01,0.0,0.0,0.0,0.01
1585296391346755915,8463,1585296391345986308,foot_imu_link,-0.0932328924537,-0.208951175213,-0.470820814371,0.852041602135,0.0,0.0,0.0,0.0,0.0,0.0,0.0,0.0,0.0,0.00121603999287,0.00131599535234,0.00140619045123,0.01,0.0,0.0,0.0,0.01,0.0,0.0,0.0,0.01,-4.24083375931,-0.375067025423,-8.63417053223,0.01,0.0,0.0,0.0,0.01,0.0,0.0,0.0,0.01
1585296391361773406,8464,1585296391361109821,foot_imu_link,-0.0932658314705,-0.208941146731,-0.47093307972,0.851978361607,0.0,0.0,0.0,0.0,0.0,0.0,0.0,0.0,0.0,0.000480522401631,0.00128531432711,0.00136357592419,0.01,0.0,0.0,0.0,0.01,0.0,0.0,0.0,0.01,-4.28128528595,-0.3371976614,-8.58585453033,0.01,0.0,0.0,0.0,0.01,0.0,0.0,0.0,0.01
1585296391384503792,8465,1585296391382877137,foot_imu_link,-0.0932720080018,-0.208935663104,-0.470989614725,0.851947784424,0.0,0.0,0.0,0.0,0.0,0.0,0.0,0.0,0.0,0.00169574934989,0.000465631484985,0.00198892876506,0.01,0.0,0.0,0.0,0.01,0.0,0.0,0.0,0.01,-4.27391242981,-0.351819217205,-8.61822032928,0.01,0.0,0.0,0.0,0.01,0.0,0.0,0.0,0.01
1585296391399235107,8466,1585296391398068377,foot_imu_link,-0.0932893306017,-0.208915218711,-0.471070438623,0.851906180382,0.0,0.0,0.0,0.0,0.0,0.0,0.0,0.0,0.0,0.000601019710302,0.00186026678421,0.00180114526302,0.01,0.0,0.0,0.0,0.01,0.0,0.0,0.0,0.01,-4.24541902542,-0.373258709908,-8.61670207977,0.01,0.0,0.0,0.0,0.01,0.0,0.0,0.0,0.01
1585296391414289223,8467,1585296391413261003,foot_imu_link,-0.0932735577226,-0.208908334374,-0.471039652824,0.85192668438,0.0,0.0,0.0,0.0,0.0,0.0,0.0,0.0,0.0,0.000939953140914,0.00136946188286,0.00305820629001,0.01,0.0,0.0,0.0,0.01,0.0,0.0,0.0,0.01,-4.27604532242,-0.358752310276,-8.61467933655,0.01,0.0,0.0,0.0,0.01,0.0,0.0,0.0,0.01
1585296391430556721,8468,1585296391429922740,foot_imu_link,-0.0932682901621,-0.208897858858,-0.471038281918,0.851930618286,0.0,0.0,0.0,0.0,0.0,0.0,0.0,0.0,0.0,9.86335799098e-05,-0.000309627212118,0.00324753811583,0.01,0.0,0.0,0.0,0.01,0.0,0.0,0.0,0.01,-4.27555274963,-0.352277219296,-8.64493751526,0.01,0.0,0.0,0.0,0.01,0.0,0.0,0.0,0.01
1585296391437966869,8469,1585296391437263619,foot_imu_link,-0.0932957082987,-0.208882451057,-0.471113085747,0.851890027523,0.0,0.0,0.0,0.0,0.0,0.0,0.0,0.0,0.0,0.000932366587222,-0.000541411864106,0.00273549696431,0.01,0.0,0.0,0.0,0.01,0.0,0.0,0.0,0.01,-4.29327964783,-0.372540682554,-8.63070869446,0.01,0.0,0.0,0.0,0.01,0.0,0.0,0.0,0.01
1585296391461830182,8470,1585296391461002665,foot_imu_link,-0.0932914838195,-0.208886444569,-0.471110403538,0.851890921593,0.0,0.0,0.0,0.0,0.0,0.0,0.0,0.0,0.0,-0.000157308764756,0.000418061390519,0.00283752242103,0.01,0.0,0.0,0.0,0.01,0.0,0.0,0.0,0.01,-4.30086994171,-0.380758881569,-8.65256500244,0.01,0.0,0.0,0.0,0.01,0.0,0.0,0.0,0.01
1585296391499289610,8471,1585296391497955375,foot_imu_link,-0.0932880043983,-0.208903387189,-0.471016615629,0.851939082146,0.0,0.0,0.0,0.0,0.0,0.0,0.0,0.0,0.0,-0.000757799483836,0.000586852722336,0.00229602260515,0.01,0.0,0.0,0.0,0.01,0.0,0.0,0.0,0.01,-4.28470420837,-0.3823967278,-8.61412620544,0.01,0.0,0.0,0.0,0.01,0.0,0.0,0.0,0.01
1585296391515394340,8472,1585296391513261345,foot_imu_link,-0.0932897105813,-0.208902671933,-0.470968782902,0.851965487003,0.0,0.0,0.0,0.0,0.0,0.0,0.0,0.0,0.0,-0.000228495337069,0.000906307715923,0.00328157842159,0.01,0.0,0.0,0.0,0.01,0.0,0.0,0.0,0.01,-4.28212833405,-0.350460201502,-8.62598228455,0.01,0.0,0.0,0.0,0.01,0.0,0.0,0.0,0.01
1585296391523173678,8473,1585296391521777675,foot_imu_link,-0.093290194869,-0.208896517754,-0.470975935459,0.851962983608,0.0,0.0,0.0,0.0,0.0,0.0,0.0,0.0,0.0,-0.000245637260377,0.00138518610038,0.00186849525198,0.01,0.0,0.0,0.0,0.01,0.0,0.0,0.0,0.01,-4.29114055634,-0.378151684999,-8.64358615875,0.01,0.0,0.0,0.0,0.01,0.0,0.0,0.0,0.01
1585296391546462739,8474,1585296391545510613,foot_imu_link,-0.0932912379503,-0.208894893527,-0.470947146416,0.851979136467,0.0,0.0,0.0,0.0,0.0,0.0,0.0,0.0,0.0,0.00171974487603,-0.000956402800512,0.000698616728187,0.01,0.0,0.0,0.0,0.01,0.0,0.0,0.0,0.01,-4.29254293442,-0.371944457293,-8.63925457001,0.01,0.0,0.0,0.0,0.01,0.0,0.0,0.0,0.01
1585296391561392534,8475,1585296391560785880,foot_imu_link,-0.0932855159044,-0.208898633718,-0.47092205286,0.851992726326,0.0,0.0,0.0,0.0,0.0,0.0,0.0,0.0,0.0,-0.000113930553198,-0.000961863668635,0.000510660000145,0.01,0.0,0.0,0.0,0.01,0.0,0.0,0.0,0.01,-4.30174255371,-0.368122309446,-8.65708732605,0.01,0.0,0.0,0.0,0.01,0.0,0.0,0.0,0.01
1585296391576297185,8476,1585296391575733278,foot_imu_link,-0.0932732447982,-0.2088996768,-0.470922499895,0.851993620396,0.0,0.0,0.0,0.0,0.0,0.0,0.0,0.0,0.0,0.00041392724961,0.00085218611639,-0.000407587736845,0.01,0.0,0.0,0.0,0.01,0.0,0.0,0.0,0.01,-4.29510402679,-0.372443199158,-8.61566829681,0.01,0.0,0.0,0.0,0.01,0.0,0.0,0.0,0.01
1585296391598981000,8477,1585296391597830261,foot_imu_link,-0.0932524502277,-0.208897188306,-0.470917671919,0.851999163628,0.0,0.0,0.0,0.0,0.0,0.0,0.0,0.0,0.0,-0.000378387048841,0.00134405470453,6.3621904701e-05,0.01,0.0,0.0,0.0,0.01,0.0,0.0,0.0,0.01,-4.31269598007,-0.400684535503,-8.64123535156,0.01,0.0,0.0,0.0,0.01,0.0,0.0,0.0,0.01
1585296391614258726,8478,1585296391612824371,foot_imu_link,-0.0932566300035,-0.208893492818,-0.470899760723,0.852009534836,0.0,0.0,0.0,0.0,0.0,0.0,0.0,0.0,0.0,-0.000390164554119,-0.00181877566501,0.00196983991191,0.01,0.0,0.0,0.0,0.01,0.0,0.0,0.0,0.01,-4.21649980545,-0.433884739876,-8.60143947601,0.01,0.0,0.0,0.0,0.01,0.0,0.0,0.0,0.01
1585296391629192685,8479,1585296391628233880,foot_imu_link,-0.0932614058256,-0.208892941475,-0.470870912075,0.852025091648,0.0,0.0,0.0,0.0,0.0,0.0,0.0,0.0,0.0,-0.000358320772648,-0.000297400314594,0.00239580497146,0.01,0.0,0.0,0.0,0.01,0.0,0.0,0.0,0.01,-4.23090553284,-0.360436022282,-8.60041618347,0.01,0.0,0.0,0.0,0.01,0.0,0.0,0.0,0.01
1585296391645585086,8480,1585296391644983373,foot_imu_link,-0.0932823866606,-0.208884775639,-0.470927089453,0.851993739605,0.0,0.0,0.0,0.0,0.0,0.0,0.0,0.0,0.0,-0.00126833561808,0.000120482116472,0.00269419839606,0.01,0.0,0.0,0.0,0.01,0.0,0.0,0.0,0.01,-4.26150083542,-0.391632795334,-8.60653305054,0.01,0.0,0.0,0.0,0.01,0.0,0.0,0.0,0.01
1585296391661235534,8481,1585296391660580929,foot_imu_link,-0.0932833775878,-0.208897590637,-0.470919460058,0.851994693279,0.0,0.0,0.0,0.0,0.0,0.0,0.0,0.0,0.0,0.000111569650471,-0.000941622594837,0.00102194445208,0.01,0.0,0.0,0.0,0.01,0.0,0.0,0.0,0.01,-4.31429672241,-0.311388999224,-8.64517211914,0.01,0.0,0.0,0.0,0.01,0.0,0.0,0.0,0.01
1585296391676502995,8482,1585296391675900008,foot_imu_link,-0.0933011248708,-0.208903118968,-0.470932513475,0.851984143257,0.0,0.0,0.0,0.0,0.0,0.0,0.0,0.0,0.0,0.00158097408712,-0.00106261321343,0.00173839414492,0.01,0.0,0.0,0.0,0.01,0.0,0.0,0.0,0.01,-4.27538204193,-0.273736834526,-8.68599510193,0.01,0.0,0.0,0.0,0.01,0.0,0.0,0.0,0.01
1585296391684179135,8483,1585296391683539730,foot_imu_link,-0.0932993739843,-0.208912149072,-0.470916032791,0.85199123621,0.0,0.0,0.0,0.0,0.0,0.0,0.0,0.0,0.0,0.00109062716365,0.00314850732684,0.00048528984189,0.01,0.0,0.0,0.0,0.01,0.0,0.0,0.0,0.01,-4.31857204437,-0.422001540661,-8.58140850067,0.01,0.0,0.0,0.0,0.01,0.0,0.0,0.0,0.01
1585296391713549952,8484,1585296391712768934,foot_imu_link,-0.0933079123497,-0.20891726017,-0.470858454704,0.852020919323,0.0,0.0,0.0,0.0,0.0,0.0,0.0,0.0,0.0,-0.000836505554616,-0.00191848305985,0.00117215933278,0.01,0.0,0.0,0.0,0.01,0.0,0.0,0.0,0.01,-4.26661968231,-0.415031969547,-8.64848995209,0.01,0.0,0.0,0.0,0.01,0.0,0.0,0.0,0.01
1585296391729406489,8485,1585296391727935305,foot_imu_link,-0.0933159738779,-0.208922252059,-0.470836013556,0.852031171322,0.0,0.0,0.0,0.0,0.0,0.0,0.0,0.0,0.0,-0.000978144817054,-0.00121634709649,0.00331119121984,0.01,0.0,0.0,0.0,0.01,0.0,0.0,0.0,0.01,-4.25015926361,-0.405086517334,-8.59625434875,0.01,0.0,0.0,0.0,0.01,0.0,0.0,0.0,0.01
1585296391745799942,8486,1585296391744533535,foot_imu_link,-0.0933361276984,-0.208928331733,-0.470830440521,0.852030575275,0.0,0.0,0.0,0.0,0.0,0.0,0.0,0.0,0.0,3.43145802617e-05,-0.000828135991469,0.00338671449572,0.01,0.0,0.0,0.0,0.01,0.0,0.0,0.0,0.01,-4.3111872673,-0.341583222151,-8.62010478973,0.01,0.0,0.0,0.0,0.01,0.0,0.0,0.0,0.01
1585296391761771021,8487,1585296391760868054,foot_imu_link,-0.0933427512646,-0.20892226696,-0.470861703157,0.852014064789,0.0,0.0,0.0,0.0,0.0,0.0,0.0,0.0,0.0,0.000323703512549,0.00237668026239,0.00183624075726,0.01,0.0,0.0,0.0,0.01,0.0,0.0,0.0,0.01,-4.28452396393,-0.360376060009,-8.63211631775,0.01,0.0,0.0,0.0,0.01,0.0,0.0,0.0,0.01
1585296391776208593,8488,1585296391775556697,foot_imu_link,-0.093340754509,-0.208919361234,-0.470842599869,0.852025508881,0.0,0.0,0.0,0.0,0.0,0.0,0.0,0.0,0.0,-0.000979914329946,-0.00157829164527,0.00218373350799,0.01,0.0,0.0,0.0,0.01,0.0,0.0,0.0,0.01,-4.26821947098,-0.340472817421,-8.60041904449,0.01,0.0,0.0,0.0,0.01,0.0,0.0,0.0,0.01
1585296391791805903,8489,1585296391790756400,foot_imu_link,-0.0933585688472,-0.20891405642,-0.47086378932,0.852013170719,0.0,0.0,0.0,0.0,0.0,0.0,0.0,0.0,0.0,-0.000550939701498,0.00036519340938,0.000894824042916,0.01,0.0,0.0,0.0,0.01,0.0,0.0,0.0,0.01,-4.29953289032,-0.364953577518,-8.6453742981,0.01,0.0,0.0,0.0,0.01,0.0,0.0,0.0,0.01
1585296391813400697,8490,1585296391812389512,foot_imu_link,-0.0933647677302,-0.208920314908,-0.470860242844,0.852012932301,0.0,0.0,0.0,0.0,0.0,0.0,0.0,0.0,0.0,-1.15130096674e-05,-0.000413005560404,0.00110697560012,0.01,0.0,0.0,0.0,0.01,0.0,0.0,0.0,0.01,-4.29509162903,-0.373050421476,-8.60505962372,0.01,0.0,0.0,0.0,0.01,0.0,0.0,0.0,0.01
1585296391830303339,8491,1585296391828219982,foot_imu_link,-0.0933759585023,-0.20891956985,-0.470864087343,0.852009773254,0.0,0.0,0.0,0.0,0.0,0.0,0.0,0.0,0.0,-0.00142799969763,-0.00050134252524,0.00116820633411,0.01,0.0,0.0,0.0,0.01,0.0,0.0,0.0,0.01,-4.27361011505,-0.371217429638,-8.61263465881,0.01,0.0,0.0,0.0,0.01,0.0,0.0,0.0,0.01
1585296391845631438,8492,1585296391842913524,foot_imu_link,-0.0933821573853,-0.20891341567,-0.47086545825,0.852009832859,0.0,0.0,0.0,0.0,0.0,0.0,0.0,0.0,0.0,0.000622130930424,0.000410619599279,0.00191202852875,0.01,0.0,0.0,0.0,0.01,0.0,0.0,0.0,0.01,-4.28782653809,-0.358556419611,-8.64801025391,0.01,0.0,0.0,0.0,0.01,0.0,0.0,0.0,0.01
1585296391861974170,8493,1585296391859718216,foot_imu_link,-0.0933778509498,-0.208903998137,-0.470853298903,0.852019309998,0.0,0.0,0.0,0.0,0.0,0.0,0.0,0.0,0.0,-0.000470125116408,0.00112918496598,0.00256307516247,0.01,0.0,0.0,0.0,0.01,0.0,0.0,0.0,0.01,-4.2941865921,-0.380975574255,-8.63957977295,0.01,0.0,0.0,0.0,0.01,0.0,0.0,0.0,0.01
1585296391876987098,8494,1585296391876360508,foot_imu_link,-0.0933773741126,-0.208895519376,-0.470829635859,0.852034509182,0.0,0.0,0.0,0.0,0.0,0.0,0.0,0.0,0.0,-0.000261676497757,-2.62591056526e-05,0.0030741142109,0.01,0.0,0.0,0.0,0.01,0.0,0.0,0.0,0.01,-4.28075742722,-0.386555671692,-8.61315155029,0.01,0.0,0.0,0.0,0.01,0.0,0.0,0.0,0.01
1585296391891172954,8495,1585296391890547041,foot_imu_link,-0.093393906951,-0.208879083395,-0.470829457045,0.852036833763,0.0,0.0,0.0,0.0,0.0,0.0,0.0,0.0,0.0,-0.00144605524838,-4.66845813207e-05,0.00331097794697,0.01,0.0,0.0,0.0,0.01,0.0,0.0,0.0,0.01,-4.28755235672,-0.387185513973,-8.60963630676,0.01,0.0,0.0,0.0,0.01,0.0,0.0,0.0,0.01
1585296391906469309,8496,1585296391905607070,foot_imu_link,-0.0934090390801,-0.208862155676,-0.470855414867,0.852024972439,0.0,0.0,0.0,0.0,0.0,0.0,0.0,0.0,0.0,-0.00113822054118,0.000803082482889,0.00254269596189,0.01,0.0,0.0,0.0,0.01,0.0,0.0,0.0,0.01,-4.25336408615,-0.368790060282,-8.63079452515,0.01,0.0,0.0,0.0,0.01,0.0,0.0,0.0,0.01
1585296391927742511,8497,1585296391927507435,foot_imu_link,-0.0934186056256,-0.2088560462,-0.470799982548,0.852056026459,0.0,0.0,0.0,0.0,0.0,0.0,0.0,0.0,0.0,-0.000875688157976,3.11686308123e-05,0.0024274289608,0.01,0.0,0.0,0.0,0.01,0.0,0.0,0.0,0.01,-4.26803541183,-0.365659713745,-8.63439655304,0.01,0.0,0.0,0.0,0.01,0.0,0.0,0.0,0.01
1585296391943004427,8498,1585296391942781980,foot_imu_link,-0.0934131965041,-0.208846092224,-0.47077819705,0.852071166039,0.0,0.0,0.0,0.0,0.0,0.0,0.0,0.0,0.0,0.00013604387641,0.00145062746014,0.00285065127537,0.01,0.0,0.0,0.0,0.01,0.0,0.0,0.0,0.01,-4.28875637054,-0.365881681442,-8.65666007996,0.01,0.0,0.0,0.0,0.01,0.0,0.0,0.0,0.01
1585296391959720547,8499,1585296391959501016,foot_imu_link,-0.0934235826135,-0.208836376667,-0.470762431622,0.852081120014,0.0,0.0,0.0,0.0,0.0,0.0,0.0,0.0,0.0,-0.00178073439747,0.00162677234039,0.00235947454348,0.01,0.0,0.0,0.0,0.01,0.0,0.0,0.0,0.01,-4.27633857727,-0.384797632694,-8.60620594025,0.01,0.0,0.0,0.0,0.01,0.0,0.0,0.0,0.01
1585296391974886650,8500,1585296391974642012,foot_imu_link,-0.0934351161122,-0.208817109466,-0.470765531063,0.852082848549,0.0,0.0,0.0,0.0,0.0,0.0,0.0,0.0,0.0,-0.000123929232359,0.00186781794764,0.00205784011632,0.01,0.0,0.0,0.0,0.01,0.0,0.0,0.0,0.01,-4.28963947296,-0.36190405488,-8.61957550049,0.01,0.0,0.0,0.0,0.01,0.0,0.0,0.0,0.01
1585296391990729720,8501,1585296391990173476,foot_imu_link,-0.0934374108911,-0.208799242973,-0.470767378807,0.85208594799,0.0,0.0,0.0,0.0,0.0,0.0,0.0,0.0,0.0,-0.00131679140031,0.00152203720063,0.00162490596995,0.01,0.0,0.0,0.0,0.01,0.0,0.0,0.0,0.01,-4.25359344482,-0.357417523861,-8.63194274902,0.01,0.0,0.0,0.0,0.01,0.0,0.0,0.0,0.01
1585296392006273009,8502,1585296392005563475,foot_imu_link,-0.0934414789081,-0.208785742521,-0.470768839121,0.852088034153,0.0,0.0,0.0,0.0,0.0,0.0,0.0,0.0,0.0,-0.00144702848047,0.000994383357465,0.000783331692219,0.01,0.0,0.0,0.0,0.01,0.0,0.0,0.0,0.01,-4.27264165878,-0.353979378939,-8.61182022095,0.01,0.0,0.0,0.0,0.01,0.0,0.0,0.0,0.01
1585296392027997304,8503,1585296392027370208,foot_imu_link,-0.0934396833181,-0.208765417337,-0.470743358135,0.852107286453,0.0,0.0,0.0,0.0,0.0,0.0,0.0,0.0,0.0,-0.00117699801922,0.00176011351869,0.000584081746638,0.01,0.0,0.0,0.0,0.01,0.0,0.0,0.0,0.01,-4.28467464447,-0.372831702232,-8.61256504059,0.01,0.0,0.0,0.0,0.01,0.0,0.0,0.0,0.01
1585296392043976317,8504,1585296392042713358,foot_imu_link,-0.093428902328,-0.208757400513,-0.470722198486,0.852122068405,0.0,0.0,0.0,0.0,0.0,0.0,0.0,0.0,0.0,-0.000121159479022,0.00432869186625,0.000784591306001,0.01,0.0,0.0,0.0,0.01,0.0,0.0,0.0,0.01,-4.27189922333,-0.356739699841,-8.60921955109,0.01,0.0,0.0,0.0,0.01,0.0,0.0,0.0,0.01
1585296392061130965,8505,1585296392058264843,foot_imu_link,-0.0934356600046,-0.208739668131,-0.470712810755,0.852130889893,0.0,0.0,0.0,0.0,0.0,0.0,0.0,0.0,0.0,-0.00215446390212,-0.000428029336035,0.00118457432836,0.01,0.0,0.0,0.0,0.01,0.0,0.0,0.0,0.01,-4.32085132599,-0.489130318165,-8.59908294678,0.01,0.0,0.0,0.0,0.01,0.0,0.0,0.0,0.01
1585296392076030681,8506,1585296392074624956,foot_imu_link,-0.0934432893991,-0.208710491657,-0.470709711313,0.852138876915,0.0,0.0,0.0,0.0,0.0,0.0,0.0,0.0,0.0,-0.000912198796868,0.0022549640853,0.00312887597829,0.01,0.0,0.0,0.0,0.01,0.0,0.0,0.0,0.01,-4.19834804535,-0.496888577938,-8.60690116882,0.01,0.0,0.0,0.0,0.01,0.0,0.0,0.0,0.01
1585296392091358711,8507,1585296392090526830,foot_imu_link,-0.0934379547834,-0.208694249392,-0.470703154802,0.852147102356,0.0,0.0,0.0,0.0,0.0,0.0,0.0,0.0,0.0,0.000959376804531,0.000428026018199,-0.00122368102893,0.01,0.0,0.0,0.0,0.01,0.0,0.0,0.0,0.01,-4.29409885406,-0.36443811655,-8.60852336884,0.01,0.0,0.0,0.0,0.01,0.0,0.0,0.0,0.01
1585296392108366395,8508,1585296392106841586,foot_imu_link,-0.0934440791607,-0.208691135049,-0.470703005791,0.85214728117,0.0,0.0,0.0,0.0,0.0,0.0,0.0,0.0,0.0,0.000824236311018,0.00140965660103,-0.000352425500751,0.01,0.0,0.0,0.0,0.01,0.0,0.0,0.0,0.01,-4.33986997604,-0.290802508593,-8.61618614197,0.01,0.0,0.0,0.0,0.01,0.0,0.0,0.0,0.01
1585296392122001608,8509,1585296392120829269,foot_imu_link,-0.0934453159571,-0.208676576614,-0.470682889223,0.852161765099,0.0,0.0,0.0,0.0,0.0,0.0,0.0,0.0,0.0,-0.00255733914673,0.00337990326807,0.000920209567994,0.01,0.0,0.0,0.0,0.01,0.0,0.0,0.0,0.01,-4.25739240646,-0.388013482094,-8.62135219574,0.01,0.0,0.0,0.0,0.01,0.0,0.0,0.0,0.01
1585296392143449801,8510,1585296392142487468,foot_imu_link,-0.0934492349625,-0.208680287004,-0.470700621605,0.852150678635,0.0,0.0,0.0,0.0,0.0,0.0,0.0,0.0,0.0,0.000790286809206,3.59960831702e-05,-0.000124637503177,0.01,0.0,0.0,0.0,0.01,0.0,0.0,0.0,0.01,-4.31231594086,-0.295519709587,-8.6884021759,0.01,0.0,0.0,0.0,0.01,0.0,0.0,0.0,0.01
1585296392158260259,8511,1585296392157617695,foot_imu_link,-0.0934444889426,-0.208679556847,-0.470652520657,0.852177858353,0.0,0.0,0.0,0.0,0.0,0.0,0.0,0.0,0.0,-0.00130918901414,-0.00151753192768,0.00274024857208,0.01,0.0,0.0,0.0,0.01,0.0,0.0,0.0,0.01,-4.20821237564,-0.311958283186,-8.58186340332,0.01,0.0,0.0,0.0,0.01,0.0,0.0,0.0,0.01
1585296392174399708,8512,1585296392174125659,foot_imu_link,-0.09344766289,-0.208689749241,-0.470661640167,0.852170050144,0.0,0.0,0.0,0.0,0.0,0.0,0.0,0.0,0.0,0.00140951294452,-0.00196628086269,0.000615184661001,0.01,0.0,0.0,0.0,0.01,0.0,0.0,0.0,0.01,-4.22489261627,-0.279776990414,-8.58628368378,0.01,0.0,0.0,0.0,0.01,0.0,0.0,0.0,0.01
1585296392205197327,8513,1585296392204911656,foot_imu_link,-0.0934295281768,-0.208728998899,-0.47062048316,0.852185130119,0.0,0.0,0.0,0.0,0.0,0.0,0.0,0.0,0.0,0.0013898126781,0.000499123008922,0.000616793055087,0.01,0.0,0.0,0.0,0.01,0.0,0.0,0.0,0.01,-4.29811859131,-0.373778134584,-8.6337890625,0.01,0.0,0.0,0.0,0.01,0.0,0.0,0.0,0.01
1585296392220401277,8514,1585296392220091469,foot_imu_link,-0.0934294685721,-0.208737075329,-0.470609843731,0.852189064026,0.0,0.0,0.0,0.0,0.0,0.0,0.0,0.0,0.0,0.000374397262931,-0.00171015248634,0.000908083748072,0.01,0.0,0.0,0.0,0.01,0.0,0.0,0.0,0.01,-4.29409694672,-0.379555821419,-8.60181427002,0.01,0.0,0.0,0.0,0.01,0.0,0.0,0.0,0.01
1585296392242619562,8515,1585296392242209377,foot_imu_link,-0.0934356600046,-0.208752408624,-0.470592647791,0.852194130421,0.0,0.0,0.0,0.0,0.0,0.0,0.0,0.0,0.0,8.74772667885e-05,-0.0020009719301,0.00218613725156,0.01,0.0,0.0,0.0,0.01,0.0,0.0,0.0,0.01,-4.27715444565,-0.369071543217,-8.66594219208,0.01,0.0,0.0,0.0,0.01,0.0,0.0,0.0,0.01
1585296392258352016,8516,1585296392257647818,foot_imu_link,-0.0934443473816,-0.208762377501,-0.470582842827,0.852196156979,0.0,0.0,0.0,0.0,0.0,0.0,0.0,0.0,0.0,-0.000744772143662,-0.00217755744234,0.00174698419869,0.01,0.0,0.0,0.0,0.01,0.0,0.0,0.0,0.01,-4.28299045563,-0.3564889431,-8.61705589294,0.01,0.0,0.0,0.0,0.01,0.0,0.0,0.0,0.01
1585296392273648197,8517,1585296392272996047,foot_imu_link,-0.0934576317668,-0.208779886365,-0.470573961735,0.852195322514,0.0,0.0,0.0,0.0,0.0,0.0,0.0,0.0,0.0,0.00150700006634,-0.00271864654496,0.0028922194615,0.01,0.0,0.0,0.0,0.01,0.0,0.0,0.0,0.01,-4.29839420319,-0.343069583178,-8.62560844421,0.01,0.0,0.0,0.0,0.01,0.0,0.0,0.0,0.01
1585296392290280473,8518,1585296392289452088,foot_imu_link,-0.093462228775,-0.208801075816,-0.470556139946,0.852199435234,0.0,0.0,0.0,0.0,0.0,0.0,0.0,0.0,0.0,0.00087114982307,-0.0033952970989,0.00209969421849,0.01,0.0,0.0,0.0,0.01,0.0,0.0,0.0,0.01,-4.24540805817,-0.36590641737,-8.61554718018,0.01,0.0,0.0,0.0,0.01,0.0,0.0,0.0,0.01
1585296392305984750,8519,1585296392305157183,foot_imu_link,-0.0934647023678,-0.208836510777,-0.470553725958,0.85219180584,0.0,0.0,0.0,0.0,0.0,0.0,0.0,0.0,0.0,0.00227847509086,-0.00262554455549,0.000857285689563,0.01,0.0,0.0,0.0,0.01,0.0,0.0,0.0,0.01,-4.27431583405,-0.383763819933,-8.61690711975,0.01,0.0,0.0,0.0,0.01,0.0,0.0,0.0,0.01
1585296392321009427,8520,1585296392320366635,foot_imu_link,-0.0934471338987,-0.208854466677,-0.470532089472,0.852201342583,0.0,0.0,0.0,0.0,0.0,0.0,0.0,0.0,0.0,0.00305646657944,-0.00128840631805,0.00150971254334,0.01,0.0,0.0,0.0,0.01,0.0,0.0,0.0,0.01,-4.26578426361,-0.373398929834,-8.62579345703,0.01,0.0,0.0,0.0,0.01,0.0,0.0,0.0,0.01
1585296392336660597,8521,1585296392335585404,foot_imu_link,-0.0934433415532,-0.208863928914,-0.47053706646,0.85219669342,0.0,0.0,0.0,0.0,0.0,0.0,0.0,0.0,0.0,0.00167304463685,-0.000656572286971,0.00173890171573,0.01,0.0,0.0,0.0,0.01,0.0,0.0,0.0,0.01,-4.26379203796,-0.347643435001,-8.62020301819,0.01,0.0,0.0,0.0,0.01,0.0,0.0,0.0,0.01
1585296392358665446,8522,1585296392357426815,foot_imu_link,-0.0934230834246,-0.20886169374,-0.470533251762,0.852201521397,0.0,0.0,0.0,0.0,0.0,0.0,0.0,0.0,0.0,0.00203609839082,-0.000104142498458,0.00103702861816,0.01,0.0,0.0,0.0,0.01,0.0,0.0,0.0,0.01,-4.27549743652,-0.39394980669,-8.61253738403,0.01,0.0,0.0,0.0,0.01,0.0,0.0,0.0,0.01
1585296392373303717,8523,1585296392372629025,foot_imu_link,-0.0934063047171,-0.208861500025,-0.470531970263,0.852204084396,0.0,0.0,0.0,0.0,0.0,0.0,0.0,0.0,0.0,0.001729587093,0.00100436108187,0.00175159191713,0.01,0.0,0.0,0.0,0.01,0.0,0.0,0.0,0.01,-4.27046966553,-0.337706744671,-8.62376213074,0.01,0.0,0.0,0.0,0.01,0.0,0.0,0.0,0.01
1585296392389998770,8524,1585296392389290589,foot_imu_link,-0.0933903679252,-0.208869338036,-0.47050434351,0.852219223976,0.0,0.0,0.0,0.0,0.0,0.0,0.0,0.0,0.0,0.00160902831703,0.000797673652414,0.00177884381264,0.01,0.0,0.0,0.0,0.01,0.0,0.0,0.0,0.01,-4.26388263702,-0.370005190372,-8.64789676666,0.01,0.0,0.0,0.0,0.01,0.0,0.0,0.0,0.01
1585296392420903663,8525,1585296392420283527,foot_imu_link,-0.093374826014,-0.208901673555,-0.470514446497,0.852207422256,0.0,0.0,0.0,0.0,0.0,0.0,0.0,0.0,0.0,0.00298455450684,-0.00302952178754,0.00122772483155,0.01,0.0,0.0,0.0,0.01,0.0,0.0,0.0,0.01,-4.29163360596,-0.371993511915,-8.61945438385,0.01,0.0,0.0,0.0,0.01,0.0,0.0,0.0,0.01
1585296392436362879,8526,1585296392435414665,foot_imu_link,-0.0933741554618,-0.208911269903,-0.470519602299,0.852202177048,0.0,0.0,0.0,0.0,0.0,0.0,0.0,0.0,0.0,0.00191209837794,-0.00101320620161,0.00268770474941,0.01,0.0,0.0,0.0,0.01,0.0,0.0,0.0,0.01,-4.29604959488,-0.366187155247,-8.64307308197,0.01,0.0,0.0,0.0,0.01,0.0,0.0,0.0,0.01
1585296392467166733,8527,1585296392465913232,foot_imu_link,-0.0933582261205,-0.208945795894,-0.470489501953,0.852212190628,0.0,0.0,0.0,0.0,0.0,0.0,0.0,0.0,0.0,0.00212231092155,0.000135083158966,0.00185505673289,0.01,0.0,0.0,0.0,0.01,0.0,0.0,0.0,0.01,-4.28164434433,-0.385342210531,-8.64235687256,0.01,0.0,0.0,0.0,0.01,0.0,0.0,0.0,0.01
1585296392488337271,8528,1585296392487662513,foot_imu_link,-0.0933267995715,-0.20893843472,-0.470462530851,0.852232336998,0.0,0.0,0.0,0.0,0.0,0.0,0.0,0.0,0.0,0.00220921542495,0.00179814139847,0.00346803758293,0.01,0.0,0.0,0.0,0.01,0.0,0.0,0.0,0.01,-4.268242836,-0.391372084618,-8.61976051331,0.01,0.0,0.0,0.0,0.01,0.0,0.0,0.0,0.01
1585296392505207546,8529,1585296392504231448,foot_imu_link,-0.0933056473732,-0.208934888244,-0.470443844795,0.852245807648,0.0,0.0,0.0,0.0,0.0,0.0,0.0,0.0,0.0,0.00183493085206,0.00139908515848,0.00205130828544,0.01,0.0,0.0,0.0,0.01,0.0,0.0,0.0,0.01,-4.29128217697,-0.363519668579,-8.62035274506,0.01,0.0,0.0,0.0,0.01,0.0,0.0,0.0,0.01
1585296392520840033,8530,1585296392520178918,foot_imu_link,-0.0932946354151,-0.20893137157,-0.470423400402,0.852259218693,0.0,0.0,0.0,0.0,0.0,0.0,0.0,0.0,0.0,0.00178568996489,0.000123422825709,0.00317195570096,0.01,0.0,0.0,0.0,0.01,0.0,0.0,0.0,0.01,-4.31930017471,-0.381506800652,-8.65002632141,0.01,0.0,0.0,0.0,0.01,0.0,0.0,0.0,0.01
1585296392536095031,8531,1585296392535503418,foot_imu_link,-0.093292824924,-0.208924025297,-0.470424026251,0.852260828018,0.0,0.0,0.0,0.0,0.0,0.0,0.0,0.0,0.0,0.000518050976098,0.000689431442879,0.00215258495882,0.01,0.0,0.0,0.0,0.01,0.0,0.0,0.0,0.01,-4.27346992493,-0.345704436302,-8.6446723938,0.01,0.0,0.0,0.0,0.01,0.0,0.0,0.0,0.01
1585296392551648892,8532,1585296392550968869,foot_imu_link,-0.0932810530066,-0.208919733763,-0.470412254333,0.852269649506,0.0,0.0,0.0,0.0,0.0,0.0,0.0,0.0,0.0,0.00279988534749,0.000982723664492,0.00235629314557,0.01,0.0,0.0,0.0,0.01,0.0,0.0,0.0,0.01,-4.2644329071,-0.371621549129,-8.5980052948,0.01,0.0,0.0,0.0,0.01,0.0,0.0,0.0,0.01
1585296392573346651,8533,1585296392572420875,foot_imu_link,-0.0932697877288,-0.208934336901,-0.470380336046,0.852284908295,0.0,0.0,0.0,0.0,0.0,0.0,0.0,0.0,0.0,0.00124255381525,0.000607624300756,-0.00011795386672,0.01,0.0,0.0,0.0,0.01,0.0,0.0,0.0,0.01,-4.28976774216,-0.366995304823,-8.63384246826,0.01,0.0,0.0,0.0,0.01,0.0,0.0,0.0,0.01
1585296392588671951,8534,1585296392587580654,foot_imu_link,-0.0932583734393,-0.208947077394,-0.470370143652,0.852288663387,0.0,0.0,0.0,0.0,0.0,0.0,0.0,0.0,0.0,0.00334731163457,-0.00119452446233,0.00102264760062,0.01,0.0,0.0,0.0,0.01,0.0,0.0,0.0,0.01,-4.24509000778,-0.365297794342,-8.62594032288,0.01,0.0,0.0,0.0,0.01,0.0,0.0,0.0,0.01
1585296392604990578,8535,1585296392604355226,foot_imu_link,-0.0932425484061,-0.208967640996,-0.470364958048,0.852288246155,0.0,0.0,0.0,0.0,0.0,0.0,0.0,0.0,0.0,0.00465748412535,-0.000979124219157,-0.00106577342376,0.01,0.0,0.0,0.0,0.01,0.0,0.0,0.0,0.01,-4.24373531342,-0.353541374207,-8.6071138382,0.01,0.0,0.0,0.0,0.01,0.0,0.0,0.0,0.01
1585296392635912776,8536,1585296392635226142,foot_imu_link,-0.0931961461902,-0.209020093083,-0.47036498785,0.852280378342,0.0,0.0,0.0,0.0,0.0,0.0,0.0,0.0,0.0,0.00557600706816,-0.00396487629041,-0.000817674677819,0.01,0.0,0.0,0.0,0.01,0.0,0.0,0.0,0.01,-4.3830332756,-0.394976824522,-8.67360591888,0.01,0.0,0.0,0.0,0.01,0.0,0.0,0.0,0.01
1585296392651252703,8537,1585296392650601667,foot_imu_link,-0.0931630134583,-0.209050685167,-0.470355570316,0.852281749249,0.0,0.0,0.0,0.0,0.0,0.0,0.0,0.0,0.0,0.00526001444086,-0.00310313189402,-0.00143988756463,0.01,0.0,0.0,0.0,0.01,0.0,0.0,0.0,0.01,-4.28128194809,-0.361222684383,-8.61675453186,0.01,0.0,0.0,0.0,0.01,0.0,0.0,0.0,0.01
1585296392687746941,8538,1585296392687308733,foot_imu_link,-0.0931006148458,-0.209112375975,-0.470328062773,0.852288544178,0.0,0.0,0.0,0.0,0.0,0.0,0.0,0.0,0.0,0.00600603641942,-0.0011046284344,-0.0020061545074,0.01,0.0,0.0,0.0,0.01,0.0,0.0,0.0,0.01,-4.2818365097,-0.356503278017,-8.6359872818,0.01,0.0,0.0,0.0,0.01,0.0,0.0,0.0,0.01
1585296392704472826,8539,1585296392702703342,foot_imu_link,-0.093066573143,-0.209110304713,-0.470317840576,0.852298498154,0.0,0.0,0.0,0.0,0.0,0.0,0.0,0.0,0.0,0.00460962159559,0.000343452091329,0.00146465562284,0.01,0.0,0.0,0.0,0.01,0.0,0.0,0.0,0.01,-4.21296834946,-0.354071140289,-8.66412353516,0.01,0.0,0.0,0.0,0.01,0.0,0.0,0.0,0.01
1585296392720115552,8540,1585296392719368375,foot_imu_link,-0.0930397138,-0.20913118124,-0.470324188471,0.852292776108,0.0,0.0,0.0,0.0,0.0,0.0,0.0,0.0,0.0,0.0015076668933,-0.00125933857635,-0.00106018362567,0.01,0.0,0.0,0.0,0.01,0.0,0.0,0.0,0.01,-4.2743768692,-0.380438417196,-8.56228351593,0.01,0.0,0.0,0.0,0.01,0.0,0.0,0.0,0.01
1585296392735723325,8541,1585296392734987296,foot_imu_link,-0.0930055752397,-0.20916377008,-0.470326304436,0.852287352085,0.0,0.0,0.0,0.0,0.0,0.0,0.0,0.0,0.0,0.00235195364803,-0.00147808622569,-0.000633928924799,0.01,0.0,0.0,0.0,0.01,0.0,0.0,0.0,0.01,-4.25696706772,-0.319748073816,-8.60842132568,0.01,0.0,0.0,0.0,0.01,0.0,0.0,0.0,0.01
1585296392751438962,8542,1585296392750665132,foot_imu_link,-0.0929831340909,-0.20919047296,-0.47030711174,0.852293848991,0.0,0.0,0.0,0.0,0.0,0.0,0.0,0.0,0.0,0.00146877579391,-0.000518385786563,-0.000420548021793,0.01,0.0,0.0,0.0,0.01,0.0,0.0,0.0,0.01,-4.30852222443,-0.352254331112,-8.60572528839,0.01,0.0,0.0,0.0,0.01,0.0,0.0,0.0,0.01
1585296392766461661,8543,1585296392765513938,foot_imu_link,-0.0929636135697,-0.209213137627,-0.470310926437,0.852288246155,0.0,0.0,0.0,0.0,0.0,0.0,0.0,0.0,0.0,0.00326347490773,-0.00180519709829,-0.000804813578725,0.01,0.0,0.0,0.0,0.01,0.0,0.0,0.0,0.01,-4.27118492126,-0.38755556941,-8.61905765533,0.01,0.0,0.0,0.0,0.01,0.0,0.0,0.0,0.01
1585296392789131010,8544,1585296392787330613,foot_imu_link,-0.0929500758648,-0.209242790937,-0.470321178436,0.852276802063,0.0,0.0,0.0,0.0,0.0,0.0,0.0,0.0,0.0,0.00217905454338,-0.00137373572215,0.000686533283442,0.01,0.0,0.0,0.0,0.01,0.0,0.0,0.0,0.01,-4.28816652298,-0.36718338728,-8.6345615387,0.01,0.0,0.0,0.0,0.01,0.0,0.0,0.0,0.01
1585296392803747064,8545,1585296392802413247,foot_imu_link,-0.0929352194071,-0.209257304668,-0.470322221518,0.852274298668,0.0,0.0,0.0,0.0,0.0,0.0,0.0,0.0,0.0,0.0021317275241,-0.000126802537125,1.68327242136e-05,0.01,0.0,0.0,0.0,0.01,0.0,0.0,0.0,0.01,-4.28631496429,-0.36972501874,-8.58992767334,0.01,0.0,0.0,0.0,0.01,0.0,0.0,0.0,0.01
1585296392820668078,8546,1585296392819264859,foot_imu_link,-0.0929207578301,-0.209262356162,-0.470310121775,0.852281332016,0.0,0.0,0.0,0.0,0.0,0.0,0.0,0.0,0.0,0.00092342030257,0.00160435284488,0.00288520287722,0.01,0.0,0.0,0.0,0.01,0.0,0.0,0.0,0.01,-4.28311157227,-0.382696866989,-8.61520862579,0.01,0.0,0.0,0.0,0.01,0.0,0.0,0.0,0.01
1585296392851204252,8547,1585296392850352998,foot_imu_link,-0.0929046422243,-0.209267795086,-0.470280736685,0.852297961712,0.0,0.0,0.0,0.0,0.0,0.0,0.0,0.0,0.0,0.00316382432356,0.000145640748087,0.00378710776567,0.01,0.0,0.0,0.0,0.01,0.0,0.0,0.0,0.01,-4.28294277191,-0.360446453094,-8.62535476685,0.01,0.0,0.0,0.0,0.01,0.0,0.0,0.0,0.01
1585296392866605045,8548,1585296392865536293,foot_imu_link,-0.092882938683,-0.209276080132,-0.470267295837,0.852305710316,0.0,0.0,0.0,0.0,0.0,0.0,0.0,0.0,0.0,0.00393129978329,0.000234714825638,0.00154477497563,0.01,0.0,0.0,0.0,0.01,0.0,0.0,0.0,0.01,-4.26280021667,-0.374241054058,-8.65216827393,0.01,0.0,0.0,0.0,0.01,0.0,0.0,0.0,0.01
1585296392905362547,8549,1585296392903482956,foot_imu_link,-0.0928275957704,-0.209338948131,-0.470237761736,0.852312624454,0.0,0.0,0.0,0.0,0.0,0.0,0.0,0.0,0.0,0.00332076428458,-0.00190907181241,0.000437644775957,0.01,0.0,0.0,0.0,0.01,0.0,0.0,0.0,0.01,-4.26482105255,-0.367843747139,-8.60642147064,0.01,0.0,0.0,0.0,0.01,0.0,0.0,0.0,0.01
1585296392918884126,8550,1585296392917265901,foot_imu_link,-0.0928089544177,-0.20935973525,-0.4702219069,0.852318227291,0.0,0.0,0.0,0.0,0.0,0.0,0.0,0.0,0.0,0.0039832200855,-0.00134348927531,0.00110642286018,0.01,0.0,0.0,0.0,0.01,0.0,0.0,0.0,0.01,-4.2980427742,-0.370740771294,-8.60764980316,0.01,0.0,0.0,0.0,0.01,0.0,0.0,0.0,0.01
1585296392935455518,8551,1585296392934182299,foot_imu_link,-0.0927918851376,-0.209387302399,-0.47020855546,0.852320730686,0.0,0.0,0.0,0.0,0.0,0.0,0.0,0.0,0.0,0.0027571762912,-0.00255142361857,0.00133870076388,0.01,0.0,0.0,0.0,0.01,0.0,0.0,0.0,0.01,-4.27538394928,-0.378649681807,-8.60553264618,0.01,0.0,0.0,0.0,0.01,0.0,0.0,0.0,0.01
1585296392951674654,8552,1585296392950369213,foot_imu_link,-0.0927932783961,-0.209410041571,-0.470188975334,0.852325737476,0.0,0.0,0.0,0.0,0.0,0.0,0.0,0.0,0.0,0.00220199115574,-0.00225207209587,0.00481565622613,0.01,0.0,0.0,0.0,0.01,0.0,0.0,0.0,0.01,-4.27811288834,-0.348521828651,-8.59676551819,0.01,0.0,0.0,0.0,0.01,0.0,0.0,0.0,0.01
1585296392965757423,8553,1585296392965091920,foot_imu_link,-0.0927841588855,-0.209430620074,-0.470185697079,0.852323532104,0.0,0.0,0.0,0.0,0.0,0.0,0.0,0.0,0.0,0.00359232863411,-6.13468000665e-05,0.00285164965317,0.01,0.0,0.0,0.0,0.01,0.0,0.0,0.0,0.01,-4.29353427887,-0.37383389473,-8.62906074524,0.01,0.0,0.0,0.0,0.01,0.0,0.0,0.0,0.01
1585296392981311652,8554,1585296392980583223,foot_imu_link,-0.0927680581808,-0.209451287985,-0.470161736012,0.852333366871,0.0,0.0,0.0,0.0,0.0,0.0,0.0,0.0,0.0,0.00504563283175,-0.00311190751381,0.00196753069758,0.01,0.0,0.0,0.0,0.01,0.0,0.0,0.0,0.01,-4.27809429169,-0.374212622643,-8.61934566498,0.01,0.0,0.0,0.0,0.01,0.0,0.0,0.0,0.01
1585296393003047962,8555,1585296393002247796,foot_imu_link,-0.0927335172892,-0.209495782852,-0.470133036375,0.852342069149,0.0,0.0,0.0,0.0,0.0,0.0,0.0,0.0,0.0,0.00510128447786,-0.00397415785119,0.00172199681401,0.01,0.0,0.0,0.0,0.01,0.0,0.0,0.0,0.01,-4.27914428711,-0.373377263546,-8.63930225372,0.01,0.0,0.0,0.0,0.01,0.0,0.0,0.0,0.01
1585296393017683828,8556,1585296393017114895,foot_imu_link,-0.0927170813084,-0.209539294243,-0.470108002424,0.85234695673,0.0,0.0,0.0,0.0,0.0,0.0,0.0,0.0,0.0,0.00494161807001,-0.00459951488301,0.00187843898311,0.01,0.0,0.0,0.0,0.01,0.0,0.0,0.0,0.01,-4.2580165863,-0.366160690784,-8.61510848999,0.01,0.0,0.0,0.0,0.01,0.0,0.0,0.0,0.01
1585296393034528838,8557,1585296393033812807,foot_imu_link,-0.092703178525,-0.20958301425,-0.47010487318,0.85233938694,0.0,0.0,0.0,0.0,0.0,0.0,0.0,0.0,0.0,0.00646198913455,-0.00539234094322,0.00132201006636,0.01,0.0,0.0,0.0,0.01,0.0,0.0,0.0,0.01,-4.25710630417,-0.3663418293,-8.61699295044,0.01,0.0,0.0,0.0,0.01,0.0,0.0,0.0,0.01
1585296393066635134,8558,1585296393065057346,foot_imu_link,-0.0926612839103,-0.209719419479,-0.470058560371,0.852335989475,0.0,0.0,0.0,0.0,0.0,0.0,0.0,0.0,0.0,0.00552777480334,-0.00542239658535,0.0037401993759,0.01,0.0,0.0,0.0,0.01,0.0,0.0,0.0,0.01,-4.29148721695,-0.371308326721,-8.5959186554,0.01,0.0,0.0,0.0,0.01,0.0,0.0,0.0,0.01
1585296393081034564,8559,1585296393080210029,foot_imu_link,-0.09265293926,-0.209771081805,-0.470038026571,0.852335512638,0.0,0.0,0.0,0.0,0.0,0.0,0.0,0.0,0.0,0.00407494045794,-0.00620044767857,0.00404894025996,0.01,0.0,0.0,0.0,0.01,0.0,0.0,0.0,0.01,-4.28835487366,-0.378358870745,-8.64860916138,0.01,0.0,0.0,0.0,0.01,0.0,0.0,0.0,0.01
1585296393117501125,8560,1585296393116930160,foot_imu_link,-0.0926557928324,-0.20983555913,-0.469958394766,0.852363228798,0.0,0.0,0.0,0.0,0.0,0.0,0.0,0.0,0.0,0.00283316429704,-0.00254320399836,0.00399828050286,0.01,0.0,0.0,0.0,0.01,0.0,0.0,0.0,0.01,-4.3438539505,-0.245018273592,-8.61323451996,0.01,0.0,0.0,0.0,0.01,0.0,0.0,0.0,0.01
1585296393134685394,8561,1585296393132377893,foot_imu_link,-0.0926569104195,-0.209845095873,-0.469940453768,0.852370619774,0.0,0.0,0.0,0.0,0.0,0.0,0.0,0.0,0.0,0.000284031964839,-0.00244942866266,0.00524855358526,0.01,0.0,0.0,0.0,0.01,0.0,0.0,0.0,0.01,-4.26994991302,-0.3146058321,-8.6245174408,0.01,0.0,0.0,0.0,0.01,0.0,0.0,0.0,0.01
1585296393149607374,8562,1585296393148962374,foot_imu_link,-0.0926751419902,-0.20984223485,-0.469921499491,0.852379858494,0.0,0.0,0.0,0.0,0.0,0.0,0.0,0.0,0.0,0.00113564543426,-0.00241749477573,0.00334071507677,0.01,0.0,0.0,0.0,0.01,0.0,0.0,0.0,0.01,-4.32574319839,-0.428231447935,-8.58865737915,0.01,0.0,0.0,0.0,0.01,0.0,0.0,0.0,0.01
1585296393166439419,8563,1585296393165034835,foot_imu_link,-0.0926653519273,-0.209864705801,-0.469905138016,0.852384448051,0.0,0.0,0.0,0.0,0.0,0.0,0.0,0.0,0.0,0.00294261751696,-0.00365233700722,0.00126723572612,0.01,0.0,0.0,0.0,0.01,0.0,0.0,0.0,0.01,-4.29569339752,-0.416765213013,-8.5595369339,0.01,0.0,0.0,0.0,0.01,0.0,0.0,0.0,0.01
1585296393183269885,8564,1585296393180291525,foot_imu_link,-0.0926631912589,-0.209876731038,-0.469897657633,0.852385759354,0.0,0.0,0.0,0.0,0.0,0.0,0.0,0.0,0.0,-0.000704438425601,-0.000389019551221,0.0024704746902,0.01,0.0,0.0,0.0,0.01,0.0,0.0,0.0,0.01,-4.26954936981,-0.397044062614,-8.6332988739,0.01,0.0,0.0,0.0,0.01,0.0,0.0,0.0,0.01
1585296393197191218,8565,1585296393195465620,foot_imu_link,-0.0926788300276,-0.209881514311,-0.469875127077,0.852395355701,0.0,0.0,0.0,0.0,0.0,0.0,0.0,0.0,0.0,-0.00182523205876,-0.00297702662647,0.00380497984588,0.01,0.0,0.0,0.0,0.01,0.0,0.0,0.0,0.01,-4.2806558609,-0.378233224154,-8.62612915039,0.01,0.0,0.0,0.0,0.01,0.0,0.0,0.0,0.01
1585296393218097529,8566,1585296393216902789,foot_imu_link,-0.0927095934749,-0.209882289171,-0.469863325357,0.852398276329,0.0,0.0,0.0,0.0,0.0,0.0,0.0,0.0,0.0,-0.00146843492985,-0.000295646372251,0.00248134322464,0.01,0.0,0.0,0.0,0.01,0.0,0.0,0.0,0.01,-4.28936815262,-0.355817914009,-8.60174751282,0.01,0.0,0.0,0.0,0.01,0.0,0.0,0.0,0.01
1585296393233136545,8567,1585296393232446134,foot_imu_link,-0.0927195847034,-0.209870561957,-0.469849228859,0.852407872677,0.0,0.0,0.0,0.0,0.0,0.0,0.0,0.0,0.0,0.000445293262601,-0.000385690451367,0.00222928449512,0.01,0.0,0.0,0.0,0.01,0.0,0.0,0.0,0.01,-4.23988485336,-0.362089961767,-8.62712669373,0.01,0.0,0.0,0.0,0.01,0.0,0.0,0.0,0.01
1585296393249467911,8568,1585296393248853229,foot_imu_link,-0.092714689672,-0.209873661399,-0.469820857048,0.852423250675,0.0,0.0,0.0,0.0,0.0,0.0,0.0,0.0,0.0,0.000884502194822,-0.000753526634071,0.00169391743839,0.01,0.0,0.0,0.0,0.01,0.0,0.0,0.0,0.01,-4.25497961044,-0.412042021751,-8.53125190735,0.01,0.0,0.0,0.0,0.01,0.0,0.0,0.0,0.01
1585296393280835835,8569,1585296393280215594,foot_imu_link,-0.0927044525743,-0.209931641817,-0.469774276018,0.852435767651,0.0,0.0,0.0,0.0,0.0,0.0,0.0,0.0,0.0,0.00319817755371,-0.0049833972007,0.00421931035817,0.01,0.0,0.0,0.0,0.01,0.0,0.0,0.0,0.01,-4.28210639954,-0.377302348614,-8.5632019043,0.01,0.0,0.0,0.0,0.01,0.0,0.0,0.0,0.01
1585296393298051989,8570,1585296393295020036,foot_imu_link,-0.0927102044225,-0.20996786654,-0.469730347395,0.852450489998,0.0,0.0,0.0,0.0,0.0,0.0,0.0,0.0,0.0,0.00348105002195,-0.00304511096328,0.0045553157106,0.01,0.0,0.0,0.0,0.01,0.0,0.0,0.0,0.01,-4.29785203934,-0.397957921028,-8.63944816589,0.01,0.0,0.0,0.0,0.01,0.0,0.0,0.0,0.01
1585296393332504927,8571,1585296393331940117,foot_imu_link,-0.0927355587482,-0.210058674216,-0.469619601965,0.852486371994,0.0,0.0,0.0,0.0,0.0,0.0,0.0,0.0,0.0,0.00369728542864,-0.00377512071282,0.0035849083215,0.01,0.0,0.0,0.0,0.01,0.0,0.0,0.0,0.01,-4.28597974777,-0.352688312531,-8.59160709381,0.01,0.0,0.0,0.0,0.01,0.0,0.0,0.0,0.01
1585296393347780890,8572,1585296393347101886,foot_imu_link,-0.0927270948887,-0.210102677345,-0.469585597515,0.852495193481,0.0,0.0,0.0,0.0,0.0,0.0,0.0,0.0,0.0,0.0067426674068,-0.0035946611315,0.00141094485298,0.01,0.0,0.0,0.0,0.01,0.0,0.0,0.0,0.01,-4.32545661926,-0.359389424324,-8.65156269073,0.01,0.0,0.0,0.0,0.01,0.0,0.0,0.0,0.01
1585296393364395075,8573,1585296393363730345,foot_imu_link,-0.0927063822746,-0.210165590048,-0.469582080841,0.852483808994,0.0,0.0,0.0,0.0,0.0,0.0,0.0,0.0,0.0,0.00899611786008,-0.00705571006984,-0.00253332639113,0.01,0.0,0.0,0.0,0.01,0.0,0.0,0.0,0.01,-4.27936649323,-0.367356956005,-8.61030578613,0.01,0.0,0.0,0.0,0.01,0.0,0.0,0.0,0.01
1585296393380792010,8574,1585296393379645975,foot_imu_link,-0.09262945503,-0.21030664444,-0.469602286816,0.852446317673,0.0,0.0,0.0,0.0,0.0,0.0,0.0,0.0,0.0,0.02007147111,-0.0125852031633,-0.0103249289095,0.01,0.0,0.0,0.0,0.01,0.0,0.0,0.0,0.01,-4.28194236755,-0.309164941311,-8.63052654266,0.01,0.0,0.0,0.0,0.01,0.0,0.0,0.0,0.01
1585296393396164348,8575,1585296393394951365,foot_imu_link,-0.0925080701709,-0.210495635867,-0.46963685751,0.852393805981,0.0,0.0,0.0,0.0,0.0,0.0,0.0,0.0,0.0,0.0273477211595,-0.0165256410837,-0.0153173711151,0.01,0.0,0.0,0.0,0.01,0.0,0.0,0.0,0.01,-4.27259969711,-0.384463012218,-8.57736587524,0.01,0.0,0.0,0.0,0.01,0.0,0.0,0.0,0.01
1585296393412598665,8576,1585296393410711630,foot_imu_link,-0.0923511087894,-0.210757434368,-0.469702839851,0.852309703827,0.0,0.0,0.0,0.0,0.0,0.0,0.0,0.0,0.0,0.0386663600802,-0.0224997196347,-0.021149141714,0.01,0.0,0.0,0.0,0.01,0.0,0.0,0.0,0.01,-4.29886293411,-0.36468192935,-8.62271213531,0.01,0.0,0.0,0.0,0.01,0.0,0.0,0.0,0.01
1585296393432521856,8577,1585296393431863888,foot_imu_link,-0.0920726284385,-0.211210474372,-0.469778001308,0.852186322212,0.0,0.0,0.0,0.0,0.0,0.0,0.0,0.0,0.0,0.0464262887836,-0.0288919638842,-0.0226464886218,0.01,0.0,0.0,0.0,0.01,0.0,0.0,0.0,0.01,-4.28066015244,-0.38950496912,-8.58893966675,0.01,0.0,0.0,0.0,0.01,0.0,0.0,0.0,0.01
1585296393447906692,8578,1585296393447142443,foot_imu_link,-0.0918372496963,-0.211580961943,-0.469834029675,0.852088928223,0.0,0.0,0.0,0.0,0.0,0.0,0.0,0.0,0.0,0.0477213934064,-0.0278715025634,-0.0221715681255,0.01,0.0,0.0,0.0,0.01,0.0,0.0,0.0,0.01,-4.30421638489,-0.430676579475,-8.59944152832,0.01,0.0,0.0,0.0,0.01,0.0,0.0,0.0,0.01
1585296393464492599,8579,1585296393463926275,foot_imu_link,-0.0915807783604,-0.211950480938,-0.469883710146,0.851997256279,0.0,0.0,0.0,0.0,0.0,0.0,0.0,0.0,0.0,0.0514441914856,-0.0263354517519,-0.0226442553103,0.01,0.0,0.0,0.0,0.01,0.0,0.0,0.0,0.01,-4.31415987015,-0.413515985012,-8.5944519043,0.01,0.0,0.0,0.0,0.01,0.0,0.0,0.0,0.01
1585296393495726295,8580,1585296393494713606,foot_imu_link,-0.0909867361188,-0.21282543242,-0.469971954823,0.85179412365,0.0,0.0,0.0,0.0,0.0,0.0,0.0,0.0,0.0,0.0480987951159,-0.0270531531423,-0.0191176459193,0.01,0.0,0.0,0.0,0.01,0.0,0.0,0.0,0.01,-4.31657409668,-0.450198322535,-8.58069992065,0.01,0.0,0.0,0.0,0.01,0.0,0.0,0.0,0.01
1585296393511129722,8581,1585296393510529360,foot_imu_link,-0.0907504484057,-0.213168501854,-0.469999760389,0.851718127728,0.0,0.0,0.0,0.0,0.0,0.0,0.0,0.0,0.0,0.0452906787395,-0.0251625012606,-0.0174083262682,0.01,0.0,0.0,0.0,0.01,0.0,0.0,0.0,0.01,-4.29657077789,-0.460998356342,-8.59863471985,0.01,0.0,0.0,0.0,0.01,0.0,0.0,0.0,0.01
1585296393547776717,8582,1585296393547019133,foot_imu_link,-0.0902620330453,-0.213909178972,-0.470010995865,0.851578176022,0.0,0.0,0.0,0.0,0.0,0.0,0.0,0.0,0.0,0.0404972359538,-0.0239556841552,-0.012634633109,0.01,0.0,0.0,0.0,0.01,0.0,0.0,0.0,0.01,-4.32425928116,-0.507360219955,-8.60008716583,0.01,0.0,0.0,0.0,0.01,0.0,0.0,0.0,0.01
1585296393563022095,8583,1585296393562372229,foot_imu_link,-0.0900761410594,-0.214204788208,-0.470019906759,0.851518630981,0.0,0.0,0.0,0.0,0.0,0.0,0.0,0.0,0.0,0.0376226380467,-0.0257065203041,-0.0101274233311,0.01,0.0,0.0,0.0,0.01,0.0,0.0,0.0,0.01,-4.30422210693,-0.495434045792,-8.60080623627,0.01,0.0,0.0,0.0,0.01,0.0,0.0,0.0,0.01
1585296393579349580,8584,1585296393578762627,foot_imu_link,-0.0898991003633,-0.214488521218,-0.470021426678,0.85146510601,0.0,0.0,0.0,0.0,0.0,0.0,0.0,0.0,0.0,0.0380180627108,-0.0196719542146,-0.00950615014881,0.01,0.0,0.0,0.0,0.01,0.0,0.0,0.0,0.01,-4.38334369659,-0.471763551235,-8.61139202118,0.01,0.0,0.0,0.0,0.01,0.0,0.0,0.0,0.01
1585296393595232165,8585,1585296393594643809,foot_imu_link,-0.089663669467,-0.214801087976,-0.470022290945,0.851410627365,0.0,0.0,0.0,0.0,0.0,0.0,0.0,0.0,0.0,0.0341999679804,-0.0147057641298,-0.00911070406437,0.01,0.0,0.0,0.0,0.01,0.0,0.0,0.0,0.01,-4.29824256897,-0.462870419025,-8.60352134705,0.01,0.0,0.0,0.0,0.01,0.0,0.0,0.0,0.01
1585296393610550608,8586,1585296393609826746,foot_imu_link,-0.0894951820374,-0.215038463473,-0.470026105642,0.851366221905,0.0,0.0,0.0,0.0,0.0,0.0,0.0,0.0,0.0,0.0305725038052,-0.0189857147634,-0.00851019565016,0.01,0.0,0.0,0.0,0.01,0.0,0.0,0.0,0.01,-4.36001062393,-0.495451331139,-8.56665706635,0.01,0.0,0.0,0.0,0.01,0.0,0.0,0.0,0.01
1585296393625560869,8587,1585296393625047817,foot_imu_link,-0.0893338322639,-0.215269610286,-0.470024138689,0.851325929165,0.0,0.0,0.0,0.0,0.0,0.0,0.0,0.0,0.0,0.0338715724647,-0.0188459567726,-0.0104908701032,0.01,0.0,0.0,0.0,0.01,0.0,0.0,0.0,0.01,-4.32117366791,-0.482531070709,-8.61504077911,0.01,0.0,0.0,0.0,0.01,0.0,0.0,0.0,0.01
1585296393648056265,8588,1585296393646613773,foot_imu_link,-0.0890937969089,-0.215607851744,-0.470016211271,0.851269841194,0.0,0.0,0.0,0.0,0.0,0.0,0.0,0.0,0.0,0.0352465137839,-0.0209624264389,-0.00760447559878,0.01,0.0,0.0,0.0,0.01,0.0,0.0,0.0,0.01,-4.33814334869,-0.514220237732,-8.53875923157,0.01,0.0,0.0,0.0,0.01,0.0,0.0,0.0,0.01
1585296393662795777,8589,1585296393662064631,foot_imu_link,-0.0889263451099,-0.215891316533,-0.470007717609,0.851220190525,0.0,0.0,0.0,0.0,0.0,0.0,0.0,0.0,0.0,0.0389030575752,-0.025129981339,-0.00942069850862,0.01,0.0,0.0,0.0,0.01,0.0,0.0,0.0,0.01,-4.35522794724,-0.479617029428,-8.56903266907,0.01,0.0,0.0,0.0,0.01,0.0,0.0,0.0,0.01
1585296393678068561,8590,1585296393677158087,foot_imu_link,-0.0887414738536,-0.216191455722,-0.469996005297,0.8511698246,0.0,0.0,0.0,0.0,0.0,0.0,0.0,0.0,0.0,0.040483802557,-0.0271808672696,-0.00784676335752,0.01,0.0,0.0,0.0,0.01,0.0,0.0,0.0,0.01,-4.34151649475,-0.554326891899,-8.60165309906,0.01,0.0,0.0,0.0,0.01,0.0,0.0,0.0,0.01
1585296393686499739,8591,1585296393685899245,foot_imu_link,-0.0886346250772,-0.216401875019,-0.469980686903,0.851135909557,0.0,0.0,0.0,0.0,0.0,0.0,0.0,0.0,0.0,0.0365785062313,-0.0255739986897,-0.00593286333606,0.01,0.0,0.0,0.0,0.01,0.0,0.0,0.0,0.01,-4.37560653687,-0.518870413303,-8.55178165436,0.01,0.0,0.0,0.0,0.01,0.0,0.0,0.0,0.01
1585296393710648870,8592,1585296393709788075,foot_imu_link,-0.0884118825197,-0.216816350818,-0.469951957464,0.851069450378,0.0,0.0,0.0,0.0,0.0,0.0,0.0,0.0,0.0,0.0273558292538,-0.0152045115829,-0.00318987830542,0.01,0.0,0.0,0.0,0.01,0.0,0.0,0.0,0.01,-4.38702011108,-0.53449511528,-8.56118869781,0.01,0.0,0.0,0.0,0.01,0.0,0.0,0.0,0.01
1585296393725716416,8593,1585296393724845524,foot_imu_link,-0.0883088111877,-0.216981127858,-0.469941914082,0.851043701172,0.0,0.0,0.0,0.0,0.0,0.0,0.0,0.0,0.0,0.0199110731483,-0.00678184395656,-0.000351610127836,0.01,0.0,0.0,0.0,0.01,0.0,0.0,0.0,0.01,-4.37870597839,-0.551634669304,-8.57936763763,0.01,0.0,0.0,0.0,0.01,0.0,0.0,0.0,0.01
1585296393763705751,8594,1585296393761762280,foot_imu_link,-0.0881524533033,-0.217216894031,-0.469906806946,0.851019203663,0.0,0.0,0.0,0.0,0.0,0.0,0.0,0.0,0.0,0.0152696147561,-0.00609976891428,-0.003132811049,0.01,0.0,0.0,0.0,0.01,0.0,0.0,0.0,0.01,-4.36861419678,-0.490450084209,-8.60347652435,0.01,0.0,0.0,0.0,0.01,0.0,0.0,0.0,0.01
1585296393777728488,8595,1585296393776935783,foot_imu_link,-0.0880892723799,-0.217310145497,-0.469906657934,0.851001977921,0.0,0.0,0.0,0.0,0.0,0.0,0.0,0.0,0.0,0.0115677909926,-0.00513646891341,-0.00198106653988,0.01,0.0,0.0,0.0,0.01,0.0,0.0,0.0,0.01,-4.38004493713,-0.549778103828,-8.57680892944,0.01,0.0,0.0,0.0,0.01,0.0,0.0,0.0,0.01
1585296393794916398,8596,1585296393793749521,foot_imu_link,-0.0880439057946,-0.217383772135,-0.469916492701,0.850982427597,0.0,0.0,0.0,0.0,0.0,0.0,0.0,0.0,0.0,0.00982413068414,-0.00437126681209,-0.00170574197546,0.01,0.0,0.0,0.0,0.01,0.0,0.0,0.0,0.01,-4.38542509079,-0.53741568327,-8.58767986298,0.01,0.0,0.0,0.0,0.01,0.0,0.0,0.0,0.01
1585296393810506763,8597,1585296393809577521,foot_imu_link,-0.08799623698,-0.217466756701,-0.469931513071,0.850957870483,0.0,0.0,0.0,0.0,0.0,0.0,0.0,0.0,0.0,0.00777414441109,-0.00493477052078,-0.00161940883845,0.01,0.0,0.0,0.0,0.01,0.0,0.0,0.0,0.01,-4.38858699799,-0.544364750385,-8.55017185211,0.01,0.0,0.0,0.0,0.01,0.0,0.0,0.0,0.01
1585296393825405694,8598,1585296393824625020,foot_imu_link,-0.0879662334919,-0.217513680458,-0.469947248697,0.850940287113,0.0,0.0,0.0,0.0,0.0,0.0,0.0,0.0,0.0,0.00585313560441,-0.00482586538419,0.000816559884697,0.01,0.0,0.0,0.0,0.01,0.0,0.0,0.0,0.01,-4.37045383453,-0.541420042515,-8.59629058838,0.01,0.0,0.0,0.0,0.01,0.0,0.0,0.0,0.01
1585296393840892895,8599,1585296393840203842,foot_imu_link,-0.0879369229078,-0.2175578475,-0.469955056906,0.850927710533,0.0,0.0,0.0,0.0,0.0,0.0,0.0,0.0,0.0,0.00650739111006,-0.00687701813877,0.000399764627218,0.01,0.0,0.0,0.0,0.01,0.0,0.0,0.0,0.01,-4.34471607208,-0.533771514893,-8.61181735992,0.01,0.0,0.0,0.0,0.01,0.0,0.0,0.0,0.01
1585296393862490330,8600,1585296393861756111,foot_imu_link,-0.0878898128867,-0.217616140842,-0.469938546419,0.850926816463,0.0,0.0,0.0,0.0,0.0,0.0,0.0,0.0,0.0,0.00588785205036,-0.00442405417562,0.000771175604314,0.01,0.0,0.0,0.0,0.01,0.0,0.0,0.0,0.01,-4.35908079147,-0.513402581215,-8.57996463776,0.01,0.0,0.0,0.0,0.01,0.0,0.0,0.0,0.01
1585296393878054203,8601,1585296393876761170,foot_imu_link,-0.0878731757402,-0.217656448483,-0.469929248095,0.850923359394,0.0,0.0,0.0,0.0,0.0,0.0,0.0,0.0,0.0,0.00531428214163,-0.00245744502172,0.00126933911815,0.01,0.0,0.0,0.0,0.01,0.0,0.0,0.0,0.01,-4.38390016556,-0.548987209797,-8.56356048584,0.01,0.0,0.0,0.0,0.01,0.0,0.0,0.0,0.01
1585296393892801945,8602,1585296393892184596,foot_imu_link,-0.0878370031714,-0.217702940106,-0.469918042421,0.850921392441,0.0,0.0,0.0,0.0,0.0,0.0,0.0,0.0,0.0,0.0069630779326,-0.00430892733857,0.000388127285987,0.01,0.0,0.0,0.0,0.01,0.0,0.0,0.0,0.01,-4.34599542618,-0.542229056358,-8.56215190887,0.01,0.0,0.0,0.0,0.01,0.0,0.0,0.0,0.01
1585296393909998763,8603,1585296393908740355,foot_imu_link,-0.0878061875701,-0.217751145363,-0.469901949167,0.850921154022,0.0,0.0,0.0,0.0,0.0,0.0,0.0,0.0,0.0,0.00539215607569,-0.00564418593422,0.00319929653779,0.01,0.0,0.0,0.0,0.01,0.0,0.0,0.0,0.01,-4.37329053879,-0.541276216507,-8.56525325775,0.01,0.0,0.0,0.0,0.01,0.0,0.0,0.0,0.01
